{
"type": "FeatureCollection",
"crs": { "type": "name", "properties": { "name": "urn:ogc:def:crs:OGC:1.3:CRS84" } },
"features": [
{ "type": "Feature", "properties": { "name": "Helsingin rautatieasema", "lyhyt_tunn": " ", "passengers": 56005 }, "geometry": { "type": "Point", "coordinates": [ 24.941187442246701, 60.171827381928203 ] } },
{ "type": "Feature", "properties": { "name": "Pasilan asema", "lyhyt_tunn": " ", "passengers": 32304 }, "geometry": { "type": "Point", "coordinates": [ 24.933100479403699, 60.199225412422898 ] } },
{ "type": "Feature", "properties": { "name": "Ilmalan asema", "lyhyt_tunn": " ", "passengers": 2165 }, "geometry": { "type": "Point", "coordinates": [ 24.921452662610399, 60.207591628251102 ] } },
{ "type": "Feature", "properties": { "name": "Huopalahden asema", "lyhyt_tunn": " ", "passengers": 9477 }, "geometry": { "type": "Point", "coordinates": [ 24.893432502707899, 60.218455597747699 ] } },
{ "type": "Feature", "properties": { "name": "Valimon asema", "lyhyt_tunn": " ", "passengers": 2133 }, "geometry": { "type": "Point", "coordinates": [ 24.8753972834579, 60.222067389298601 ] } },
{ "type": "Feature", "properties": { "name": "Pitäjänmäen asema", "lyhyt_tunn": " ", "passengers": 1905 }, "geometry": { "type": "Point", "coordinates": [ 24.860469068992401, 60.223197222873601 ] } },
{ "type": "Feature", "properties": { "name": "Pohjois-Haagan asema", "lyhyt_tunn": " ", "passengers": 3080 }, "geometry": { "type": "Point", "coordinates": [ 24.883077921808699, 60.229906309228902 ] } },
{ "type": "Feature", "properties": { "name": "Kannelmäen asema", "lyhyt_tunn": " ", "passengers": 4894 }, "geometry": { "type": "Point", "coordinates": [ 24.8779678210581, 60.239257143302602 ] } },
{ "type": "Feature", "properties": { "name": "Käpylän asema", "lyhyt_tunn": " ", "passengers": 2596 }, "geometry": { "type": "Point", "coordinates": [ 24.947139601611401, 60.220264360112203 ] } },
{ "type": "Feature", "properties": { "name": "Oulunkylän asema", "lyhyt_tunn": " ", "passengers": 5105 }, "geometry": { "type": "Point", "coordinates": [ 24.966554142559701, 60.228265616664899 ] } },
{ "type": "Feature", "properties": { "name": "Pukinmäen asema", "lyhyt_tunn": " ", "passengers": 3908 }, "geometry": { "type": "Point", "coordinates": [ 24.9940970898089, 60.242684130468298 ] } },
{ "type": "Feature", "properties": { "name": "Malmin asema", "lyhyt_tunn": " ", "passengers": 11193 }, "geometry": { "type": "Point", "coordinates": [ 25.0109377036122, 60.251326552378501 ] } },
{ "type": "Feature", "properties": { "name": "Tapanilan asema", "lyhyt_tunn": " ", "passengers": 2752 }, "geometry": { "type": "Point", "coordinates": [ 25.029468848608499, 60.263472381345402 ] } },
{ "type": "Feature", "properties": { "name": "Puistolan asema", "lyhyt_tunn": " ", "passengers": 5869 }, "geometry": { "type": "Point", "coordinates": [ 25.036074247628399, 60.275260400646999 ] } },
{ "type": "Feature", "properties": { "name": "Malminkartanon asema", "lyhyt_tunn": " ", "passengers": 3915 }, "geometry": { "type": "Point", "coordinates": [ 24.861313719452699, 60.2492126959093 ] } },
{ "type": "Feature", "properties": { "name": "Mäkkylän asema", "lyhyt_tunn": " ", "passengers": 547 }, "geometry": { "type": "Point", "coordinates": [ 24.8426995814206, 60.221228826349297 ] } },
{ "type": "Feature", "properties": { "name": "Leppävaaran asema", "lyhyt_tunn": " ", "passengers": 13417 }, "geometry": { "type": "Point", "coordinates": [ 24.814562355868102, 60.219420821214001 ] } },
{ "type": "Feature", "properties": { "name": "Keran asema", "lyhyt_tunn": " ", "passengers": 1472 }, "geometry": { "type": "Point", "coordinates": [ 24.7536133951421, 60.216073865616501 ] } },
{ "type": "Feature", "properties": { "name": "Kauniaisten asema", "lyhyt_tunn": " ", "passengers": 1878 }, "geometry": { "type": "Point", "coordinates": [ 24.731532131402801, 60.211987784208901 ] } },
{ "type": "Feature", "properties": { "name": "Koivuhovin asema", "lyhyt_tunn": " ", "passengers": 1144 }, "geometry": { "type": "Point", "coordinates": [ 24.702584997100001, 60.207054951524903 ] } },
{ "type": "Feature", "properties": { "name": "Tuomarilan asema", "lyhyt_tunn": " ", "passengers": 1706 }, "geometry": { "type": "Point", "coordinates": [ 24.682314620823099, 60.206209291126001 ] } },
{ "type": "Feature", "properties": { "name": "Espoon asema", "lyhyt_tunn": " ", "passengers": 4913 }, "geometry": { "type": "Point", "coordinates": [ 24.6563057838849, 60.2051197696617 ] } },
{ "type": "Feature", "properties": { "name": "Kauklahden asema", "lyhyt_tunn": " ", "passengers": 2198 }, "geometry": { "type": "Point", "coordinates": [ 24.599806028325599, 60.189239994230398 ] } },
{ "type": "Feature", "properties": { "name": "Kilon asema", "lyhyt_tunn": " ", "passengers": 2172 }, "geometry": { "type": "Point", "coordinates": [ 24.781960524258899, 60.217875584490699 ] } },
{ "type": "Feature", "properties": { "name": "Myyrmäen asema", "lyhyt_tunn": " ", "passengers": 6642 }, "geometry": { "type": "Point", "coordinates": [ 24.854853292945201, 60.2618564633052 ] } },
{ "type": "Feature", "properties": { "name": "Louhelan asema", "lyhyt_tunn": " ", "passengers": 1946 }, "geometry": { "type": "Point", "coordinates": [ 24.853489917126002, 60.270553792423598 ] } },
{ "type": "Feature", "properties": { "name": "Martinlaakson asema", "lyhyt_tunn": " ", "passengers": 3520 }, "geometry": { "type": "Point", "coordinates": [ 24.852509970858499, 60.278036904579601 ] } },
{ "type": "Feature", "properties": { "name": "Vantaankosken asema", "lyhyt_tunn": " ", "passengers": 1444 }, "geometry": { "type": "Point", "coordinates": [ 24.8480663702668, 60.285820392097499 ] } },
{ "type": "Feature", "properties": { "name": "Tikkurilan asema", "lyhyt_tunn": " ", "passengers": 16127 }, "geometry": { "type": "Point", "coordinates": [ 25.044100078156099, 60.292323813393402 ] } },
{ "type": "Feature", "properties": { "name": "Hiekkaharjun asema", "lyhyt_tunn": " ", "passengers": 3758 }, "geometry": { "type": "Point", "coordinates": [ 25.049112848878899, 60.303172234511102 ] } },
{ "type": "Feature", "properties": { "name": "Koivukylän asema", "lyhyt_tunn": " ", "passengers": 3570 }, "geometry": { "type": "Point", "coordinates": [ 25.0601216973585, 60.323621993160501 ] } },
{ "type": "Feature", "properties": { "name": "Rekolan asema", "lyhyt_tunn": " ", "passengers": 1304 }, "geometry": { "type": "Point", "coordinates": [ 25.0684370691155, 60.332719942371497 ] } },
{ "type": "Feature", "properties": { "name": "Korson asema", "lyhyt_tunn": " ", "passengers": 4307 }, "geometry": { "type": "Point", "coordinates": [ 25.078426750094501, 60.351255534515403 ] } },
{ "type": "Feature", "properties": { "name": "Vehkalan asema", "lyhyt_tunn": " ", "passengers": 514 }, "geometry": { "type": "Point", "coordinates": [ 24.8436847536485, 60.2953894925311 ] } },
{ "type": "Feature", "properties": { "name": "Kivistön asema", "lyhyt_tunn": " ", "passengers": 2665 }, "geometry": { "type": "Point", "coordinates": [ 24.846416154781799, 60.314310916315797 ] } },
{ "type": "Feature", "properties": { "name": "Aviapoliksen asema", "lyhyt_tunn": " ", "passengers": 1719 }, "geometry": { "type": "Point", "coordinates": [ 24.9555959636828, 60.3037695723079 ] } },
{ "type": "Feature", "properties": { "name": "Lentoaseman asema", "lyhyt_tunn": " ", "passengers": 4071 }, "geometry": { "type": "Point", "coordinates": [ 24.968649555732402, 60.315783566058798 ] } },
{ "type": "Feature", "properties": { "name": "Leinelän asema", "lyhyt_tunn": " ", "passengers": 1813 }, "geometry": { "type": "Point", "coordinates": [ 25.039057213419699, 60.322594419696799 ] } },
{ "type": "Feature", "properties": { "name": "Masalan asema", "lyhyt_tunn": " ", "passengers": 909 }, "geometry": { "type": "Point", "coordinates": [ 24.539174674871401, 60.1586420895608 ] } },
{ "type": "Feature", "properties": { "name": "Jorvaksen asema", "lyhyt_tunn": " ", "passengers": 151 }, "geometry": { "type": "Point", "coordinates": [ 24.5119966284417, 60.137504506927499 ] } },
{ "type": "Feature", "properties": { "name": "Tolsan asema", "lyhyt_tunn": " ", "passengers": 247 }, "geometry": { "type": "Point", "coordinates": [ 24.470179987016799, 60.117760470569301 ] } },
{ "type": "Feature", "properties": { "name": "Kirkkonummen asema", "lyhyt_tunn": " ", "passengers": 1952 }, "geometry": { "type": "Point", "coordinates": [ 24.438999890932301, 60.119599731642403 ] } },
{ "type": "Feature", "properties": { "name": "Siuntion asema", "lyhyt_tunn": " ", "passengers": 146 }, "geometry": { "type": "Point", "coordinates": [ 24.219382728630102, 60.140429774914303 ] } },
{ "type": "Feature", "properties": { "name": "Savion asema", "lyhyt_tunn": " ", "passengers": 1285 }, "geometry": { "type": "Point", "coordinates": [ 25.097683751404102, 60.3803867330614 ] } },
{ "type": "Feature", "properties": { "name": "Keravan asema", "lyhyt_tunn": " ", "passengers": 8122 }, "geometry": { "type": "Point", "coordinates": [ 25.105967495803299, 60.404391727596199 ] } },
{ "type": "Feature", "properties": { "name": "Katajanokka", "lyhyt_tunn": "H0097", "passengers": 47 }, "geometry": { "type": "Point", "coordinates": [ 24.983157957673701, 60.1683909788607 ] } },
{ "type": "Feature", "properties": { "name": "Kauppatori", "lyhyt_tunn": "H0099", "passengers": 1379 }, "geometry": { "type": "Point", "coordinates": [ 24.959020845535601, 60.168475466569603 ] } },
{ "type": "Feature", "properties": { "name": "Suomenlinna", "lyhyt_tunn": "H0098", "passengers": 1303 }, "geometry": { "type": "Point", "coordinates": [ 24.987127737854799, 60.150494362225103 ] } },
{ "type": "Feature", "properties": { "name": "Suomenlinna", "lyhyt_tunn": "H0096", "passengers": 53 }, "geometry": { "type": "Point", "coordinates": [ 24.995679497310999, 60.1476497391442 ] } },
{ "type": "Feature", "properties": { "name": "Ruoholahden metroasema", "lyhyt_tunn": "RL", "passengers": 17381 }, "geometry": { "type": "Point", "coordinates": [ 24.9137643260628, 60.162630310340603 ] } },
{ "type": "Feature", "properties": { "name": "Kampin metroasema", "lyhyt_tunn": "KP", "passengers": 27917 }, "geometry": { "type": "Point", "coordinates": [ 24.933246391707701, 60.169424083155 ] } },
{ "type": "Feature", "properties": { "name": "Rautatientorin metroasema", "lyhyt_tunn": "RT", "passengers": 27930 }, "geometry": { "type": "Point", "coordinates": [ 24.941251326487599, 60.170911373860903 ] } },
{ "type": "Feature", "properties": { "name": "Helsingin yliopiston metroasema", "lyhyt_tunn": "KN", "passengers": 9713 }, "geometry": { "type": "Point", "coordinates": [ 24.948247595150502, 60.171130804842797 ] } },
{ "type": "Feature", "properties": { "name": "Hakaniemen metroasema", "lyhyt_tunn": "HT", "passengers": 14074 }, "geometry": { "type": "Point", "coordinates": [ 24.9511398724072, 60.179574485574101 ] } },
{ "type": "Feature", "properties": { "name": "Sörnäisten metroasema", "lyhyt_tunn": "SN", "passengers": 23531 }, "geometry": { "type": "Point", "coordinates": [ 24.960680234105599, 60.187862402827697 ] } },
{ "type": "Feature", "properties": { "name": "Kalasataman metroasema", "lyhyt_tunn": "KA", "passengers": 8350 }, "geometry": { "type": "Point", "coordinates": [ 24.978066803840001, 60.187618644285102 ] } },
{ "type": "Feature", "properties": { "name": "Kulosaaren metroasema", "lyhyt_tunn": "KS", "passengers": 3514 }, "geometry": { "type": "Point", "coordinates": [ 25.007238465582802, 60.189051919910199 ] } },
{ "type": "Feature", "properties": { "name": "Herttoniemen metroasema", "lyhyt_tunn": "HN", "passengers": 18226 }, "geometry": { "type": "Point", "coordinates": [ 25.030840022449102, 60.195001278786002 ] } },
{ "type": "Feature", "properties": { "name": "Siilitien metroasema", "lyhyt_tunn": "ST", "passengers": 4391 }, "geometry": { "type": "Point", "coordinates": [ 25.043836668527501, 60.205724850621401 ] } },
{ "type": "Feature", "properties": { "name": "Itäkeskuksen metroasema", "lyhyt_tunn": "IK", "passengers": 22702 }, "geometry": { "type": "Point", "coordinates": [ 25.077336621587801, 60.209864360751702 ] } },
{ "type": "Feature", "properties": { "name": "Myllypuron metroasema", "lyhyt_tunn": "MP", "passengers": 7594 }, "geometry": { "type": "Point", "coordinates": [ 25.076628696856901, 60.2245909930799 ] } },
{ "type": "Feature", "properties": { "name": "Kontulan metroasema", "lyhyt_tunn": "KL", "passengers": 11589 }, "geometry": { "type": "Point", "coordinates": [ 25.0835459816618, 60.236257547248002 ] } },
{ "type": "Feature", "properties": { "name": "Mellunmäen metroasema", "lyhyt_tunn": "MM", "passengers": 7262 }, "geometry": { "type": "Point", "coordinates": [ 25.110244373778901, 60.238927286365303 ] } },
{ "type": "Feature", "properties": { "name": "Puotilan metroasema", "lyhyt_tunn": "PT", "passengers": 6285 }, "geometry": { "type": "Point", "coordinates": [ 25.093908409145801, 60.214611817981101 ] } },
{ "type": "Feature", "properties": { "name": "Rastilan metroasema", "lyhyt_tunn": "RS", "passengers": 4197 }, "geometry": { "type": "Point", "coordinates": [ 25.1204642056586, 60.205656380737402 ] } },
{ "type": "Feature", "properties": { "name": "Vuosaaren metroasema", "lyhyt_tunn": "VS", "passengers": 14623 }, "geometry": { "type": "Point", "coordinates": [ 25.1424807460896, 60.207613946726298 ] } },
{ "type": "Feature", "properties": { "name": "A. Petreliuksen katu", "lyhyt_tunn": "V6224", "passengers": 3 }, "geometry": { "type": "Point", "coordinates": [ 25.0487599998742, 60.295659999609398 ] } },
{ "type": "Feature", "properties": { "name": "A. Petreliuksen katu", "lyhyt_tunn": "V6225", "passengers": 0 }, "geometry": { "type": "Point", "coordinates": [ 25.048920000058001, 60.295289999633802 ] } },
{ "type": "Feature", "properties": { "name": "A.I. Virtasen aukio", "lyhyt_tunn": "H3597", "passengers": 131 }, "geometry": { "type": "Point", "coordinates": [ 24.963849999877699, 60.204879999612302 ] } },
{ "type": "Feature", "properties": { "name": "A.I. Virtasen aukio", "lyhyt_tunn": "H3596", "passengers": 287 }, "geometry": { "type": "Point", "coordinates": [ 24.962929999719702, 60.205830000254402 ] } },
{ "type": "Feature", "properties": { "name": "Aakenraitti", "lyhyt_tunn": "H4728", "passengers": 1 }, "geometry": { "type": "Point", "coordinates": [ 25.037777999755001, 60.169458000186602 ] } },
{ "type": "Feature", "properties": { "name": "Aalto", "lyhyt_tunn": "E4038", "passengers": 667 }, "geometry": { "type": "Point", "coordinates": [ 24.641189999618899, 60.1500599995694 ] } },
{ "type": "Feature", "properties": { "name": "Aalto", "lyhyt_tunn": "E4039", "passengers": 251 }, "geometry": { "type": "Point", "coordinates": [ 24.641184000241498, 60.150237999684002 ] } },
{ "type": "Feature", "properties": { "name": "Aamuruskonkuja", "lyhyt_tunn": "Ki0726", "passengers": 3 }, "geometry": { "type": "Point", "coordinates": [ 24.415857000000599, 60.097216999864699 ] } },
{ "type": "Feature", "properties": { "name": "Aamutie", "lyhyt_tunn": "E3228", "passengers": 46 }, "geometry": { "type": "Point", "coordinates": [ 24.7414430002943, 60.167702000147202 ] } },
{ "type": "Feature", "properties": { "name": "Aamutie", "lyhyt_tunn": "E3229", "passengers": 76 }, "geometry": { "type": "Point", "coordinates": [ 24.743554999663601, 60.168742000442997 ] } },
{ "type": "Feature", "properties": { "name": "Aarteenetsijäntie", "lyhyt_tunn": "H4892", "passengers": 2 }, "geometry": { "type": "Point", "coordinates": [ 25.102834999735499, 60.239980000376796 ] } },
{ "type": "Feature", "properties": { "name": "Aarteenetsijäntie", "lyhyt_tunn": "H4473", "passengers": 3 }, "geometry": { "type": "Point", "coordinates": [ 25.103392000240699, 60.2398570001005 ] } },
{ "type": "Feature", "properties": { "name": "Aarteenetsijäntie", "lyhyt_tunn": "H4472", "passengers": 39 }, "geometry": { "type": "Point", "coordinates": [ 25.1028300004043, 60.2394399997563 ] } },
{ "type": "Feature", "properties": { "name": "Aavaranta", "lyhyt_tunn": "Ki1440", "passengers": 27 }, "geometry": { "type": "Point", "coordinates": [ 24.477862999577798, 60.194934999650599 ] } },
{ "type": "Feature", "properties": { "name": "Aavaranta", "lyhyt_tunn": "Ki1446", "passengers": 0 }, "geometry": { "type": "Point", "coordinates": [ 24.478328000337001, 60.194899999835201 ] } },
{ "type": "Feature", "properties": { "name": "Abraham Wetterin tie", "lyhyt_tunn": "H4167", "passengers": 3 }, "geometry": { "type": "Point", "coordinates": [ 25.0429999995504, 60.194629999974602 ] } },
{ "type": "Feature", "properties": { "name": "Abraham Wetterin tie", "lyhyt_tunn": "H4168", "passengers": 66 }, "geometry": { "type": "Point", "coordinates": [ 25.042470000290301, 60.1928800002119 ] } },
{ "type": "Feature", "properties": { "name": "Adolf Lindforsin tie", "lyhyt_tunn": "H1761", "passengers": 0 }, "geometry": { "type": "Point", "coordinates": [ 24.892159999784202, 60.2294199999331 ] } },
{ "type": "Feature", "properties": { "name": "Adolf Lindforsin tie", "lyhyt_tunn": "H1762", "passengers": 1 }, "geometry": { "type": "Point", "coordinates": [ 24.893670000170399, 60.229335999656698 ] } },
{ "type": "Feature", "properties": { "name": "Adolf Lindforsin tie", "lyhyt_tunn": "H1763", "passengers": 0 }, "geometry": { "type": "Point", "coordinates": [ 24.890317000229398, 60.229510999633 ] } },
{ "type": "Feature", "properties": { "name": "Adolf Lindforsin tie", "lyhyt_tunn": "H1764", "passengers": 1 }, "geometry": { "type": "Point", "coordinates": [ 24.8888269998662, 60.230265000229601 ] } },
{ "type": "Feature", "properties": { "name": "Agroksenkuja", "lyhyt_tunn": "H3007", "passengers": 82 }, "geometry": { "type": "Point", "coordinates": [ 24.977820000192899, 60.193580000117002 ] } },
{ "type": "Feature", "properties": { "name": "Agroksenkuja", "lyhyt_tunn": "H3520", "passengers": 64 }, "geometry": { "type": "Point", "coordinates": [ 24.977104999596101, 60.191968999569703 ] } },
{ "type": "Feature", "properties": { "name": "Agronominkatu", "lyhyt_tunn": "H3481", "passengers": 50 }, "geometry": { "type": "Point", "coordinates": [ 25.0330900003033, 60.234460000328802 ] } },
{ "type": "Feature", "properties": { "name": "Agronominkatu", "lyhyt_tunn": "H3480", "passengers": 280 }, "geometry": { "type": "Point", "coordinates": [ 25.032529999659801, 60.234509999936598 ] } },
{ "type": "Feature", "properties": { "name": "Agronominraitti", "lyhyt_tunn": "H3487", "passengers": 7 }, "geometry": { "type": "Point", "coordinates": [ 25.047250000387201, 60.2324100002214 ] } },
{ "type": "Feature", "properties": { "name": "Agronominraitti", "lyhyt_tunn": "H3486", "passengers": 231 }, "geometry": { "type": "Point", "coordinates": [ 25.047609999901599, 60.232530000359297 ] } },
{ "type": "Feature", "properties": { "name": "Ahjokuja", "lyhyt_tunn": "H1713", "passengers": 0 }, "geometry": { "type": "Point", "coordinates": [ 24.891654999878401, 60.210284999753 ] } },
{ "type": "Feature", "properties": { "name": "Ahjokuja", "lyhyt_tunn": "H1714", "passengers": 0 }, "geometry": { "type": "Point", "coordinates": [ 24.891564000178501, 60.2102679998683 ] } },
{ "type": "Feature", "properties": { "name": "Ahjon koulu", "lyhyt_tunn": "Ke0532", "passengers": 85 }, "geometry": { "type": "Point", "coordinates": [ 25.1393500001025, 60.400869999550899 ] } },
{ "type": "Feature", "properties": { "name": "Ahjon koulu", "lyhyt_tunn": "Ke0533", "passengers": 19 }, "geometry": { "type": "Point", "coordinates": [ 25.1401700001454, 60.400550000082497 ] } },
{ "type": "Feature", "properties": { "name": "Ahjonsilta", "lyhyt_tunn": "Ke0525", "passengers": 2 }, "geometry": { "type": "Point", "coordinates": [ 25.1405899997288, 60.405539999971097 ] } },
{ "type": "Feature", "properties": { "name": "Ahjotie", "lyhyt_tunn": "Ki0133", "passengers": 0 }, "geometry": { "type": "Point", "coordinates": [ 24.468174999776501, 60.152860000088999 ] } },
{ "type": "Feature", "properties": { "name": "Ahjotie", "lyhyt_tunn": "Ki0134", "passengers": 0 }, "geometry": { "type": "Point", "coordinates": [ 24.467760000423699, 60.152962000296199 ] } },
{ "type": "Feature", "properties": { "name": "Ahlgrenin mutka", "lyhyt_tunn": "Si1912", "passengers": 0 }, "geometry": { "type": "Point", "coordinates": [ 25.2339499999925, 60.380820000342801 ] } },
{ "type": "Feature", "properties": { "name": "Ahlgrenin mutka", "lyhyt_tunn": "Si1915", "passengers": 2 }, "geometry": { "type": "Point", "coordinates": [ 25.234219999853199, 60.381682999670801 ] } },
{ "type": "Feature", "properties": { "name": "Ahoniityntie", "lyhyt_tunn": "V3318", "passengers": 1 }, "geometry": { "type": "Point", "coordinates": [ 24.8623999997602, 60.3514100002714 ] } },
{ "type": "Feature", "properties": { "name": "Ahtaanmäki", "lyhyt_tunn": "E4324", "passengers": 59 }, "geometry": { "type": "Point", "coordinates": [ 24.687299999994998, 60.172979999827199 ] } },
{ "type": "Feature", "properties": { "name": "Ahtelantie", "lyhyt_tunn": "Si0401", "passengers": 11 }, "geometry": { "type": "Point", "coordinates": [ 25.285870000300299, 60.274444999737 ] } },
{ "type": "Feature", "properties": { "name": "Ahtelantie", "lyhyt_tunn": "Si0412", "passengers": 28 }, "geometry": { "type": "Point", "coordinates": [ 25.287136000226301, 60.275142000403001 ] } },
{ "type": "Feature", "properties": { "name": "Ahventie", "lyhyt_tunn": "V8620", "passengers": 24 }, "geometry": { "type": "Point", "coordinates": [ 25.136919999558401, 60.356070000230403 ] } },
{ "type": "Feature", "properties": { "name": "Aidasmäki", "lyhyt_tunn": "H3105", "passengers": 2 }, "geometry": { "type": "Point", "coordinates": [ 24.974339999791201, 60.229640000185903 ] } },
{ "type": "Feature", "properties": { "name": "Aidasmäki", "lyhyt_tunn": "H3104", "passengers": 42 }, "geometry": { "type": "Point", "coordinates": [ 24.9735999998402, 60.229270000210398 ] } },
{ "type": "Feature", "properties": { "name": "Ailakkitie", "lyhyt_tunn": "V6003", "passengers": 15 }, "geometry": { "type": "Point", "coordinates": [ 25.043010000011499, 60.301740000300804 ] } },
{ "type": "Feature", "properties": { "name": "Ailakkitie", "lyhyt_tunn": "V6004", "passengers": 21 }, "geometry": { "type": "Point", "coordinates": [ 25.040870000250401, 60.301390000348299 ] } },
{ "type": "Feature", "properties": { "name": "Aino Acktén tie", "lyhyt_tunn": "H1635", "passengers": 14 }, "geometry": { "type": "Point", "coordinates": [ 24.8984100002214, 60.225129999949601 ] } },
{ "type": "Feature", "properties": { "name": "Aino Acktén tie", "lyhyt_tunn": "H1634", "passengers": 67 }, "geometry": { "type": "Point", "coordinates": [ 24.898479999852199, 60.2249800002269 ] } },
{ "type": "Feature", "properties": { "name": "Ainontie", "lyhyt_tunn": "V1405", "passengers": 8 }, "geometry": { "type": "Point", "coordinates": [ 24.805809999931601, 60.270249999637798 ] } },
{ "type": "Feature", "properties": { "name": "Ainontie", "lyhyt_tunn": "V1406", "passengers": 23 }, "geometry": { "type": "Point", "coordinates": [ 24.8054100003713, 60.270079999892097 ] } },
{ "type": "Feature", "properties": { "name": "Aisatie", "lyhyt_tunn": "V1003", "passengers": 0 }, "geometry": { "type": "Point", "coordinates": [ 24.779769999685801, 60.250390000198401 ] } },
{ "type": "Feature", "properties": { "name": "Aisatie", "lyhyt_tunn": "V1004", "passengers": 10 }, "geometry": { "type": "Point", "coordinates": [ 24.779510000286301, 60.250900000334802 ] } },
{ "type": "Feature", "properties": { "name": "Aittatie", "lyhyt_tunn": "H1590", "passengers": 16 }, "geometry": { "type": "Point", "coordinates": [ 24.844720000128, 60.2330599996193 ] } },
{ "type": "Feature", "properties": { "name": "Aittatie", "lyhyt_tunn": "H1591", "passengers": 1 }, "geometry": { "type": "Point", "coordinates": [ 24.8455499997327, 60.233090000103502 ] } },
{ "type": "Feature", "properties": { "name": "Ajurinkatu", "lyhyt_tunn": "E1028", "passengers": 42 }, "geometry": { "type": "Point", "coordinates": [ 24.812720000227898, 60.226700000404797 ] } },
{ "type": "Feature", "properties": { "name": "Akselinpolku", "lyhyt_tunn": "E3106", "passengers": 755 }, "geometry": { "type": "Point", "coordinates": [ 24.7444600000291, 60.156300000444702 ] } },
{ "type": "Feature", "properties": { "name": "Akselinpolku", "lyhyt_tunn": "E3107", "passengers": 28 }, "geometry": { "type": "Point", "coordinates": [ 24.744999999750199, 60.155329999779703 ] } },
{ "type": "Feature", "properties": { "name": "Alakartanonkuja", "lyhyt_tunn": "E4126", "passengers": 16 }, "geometry": { "type": "Point", "coordinates": [ 24.669484000386401, 60.135127999857403 ] } },
{ "type": "Feature", "properties": { "name": "Alakartanonkuja", "lyhyt_tunn": "E4127", "passengers": 176 }, "geometry": { "type": "Point", "coordinates": [ 24.670329999829701, 60.135279999672299 ] } },
{ "type": "Feature", "properties": { "name": "Alakaupunki", "lyhyt_tunn": "E4034", "passengers": 379 }, "geometry": { "type": "Point", "coordinates": [ 24.631359999564399, 60.155269999710796 ] } },
{ "type": "Feature", "properties": { "name": "Alakaupunki", "lyhyt_tunn": "E4035", "passengers": 164 }, "geometry": { "type": "Point", "coordinates": [ 24.631829999654801, 60.155389999848701 ] } },
{ "type": "Feature", "properties": { "name": "Alakiventie", "lyhyt_tunn": "H4268", "passengers": 88 }, "geometry": { "type": "Point", "coordinates": [ 25.074350000052501, 60.219699999555402 ] } },
{ "type": "Feature", "properties": { "name": "Alakiventie 5", "lyhyt_tunn": "H4266", "passengers": 66 }, "geometry": { "type": "Point", "coordinates": [ 25.078620000013, 60.221689999593899 ] } },
{ "type": "Feature", "properties": { "name": "Alakiventie 5", "lyhyt_tunn": "H4267", "passengers": 4 }, "geometry": { "type": "Point", "coordinates": [ 25.078840000265899, 60.221270000010499 ] } },
{ "type": "Feature", "properties": { "name": "Alalinnake", "lyhyt_tunn": "E2322", "passengers": 85 }, "geometry": { "type": "Point", "coordinates": [ 24.791130000149501, 60.162409999821698 ] } },
{ "type": "Feature", "properties": { "name": "Alalinnake", "lyhyt_tunn": "E2328", "passengers": 36 }, "geometry": { "type": "Point", "coordinates": [ 24.790479999852199, 60.163309999956603 ] } },
{ "type": "Feature", "properties": { "name": "Ala-Malmi", "lyhyt_tunn": "H3254", "passengers": 292 }, "geometry": { "type": "Point", "coordinates": [ 25.011380000087001, 60.247549999632803 ] } },
{ "type": "Feature", "properties": { "name": "Ala-Malmi", "lyhyt_tunn": "H3253", "passengers": 803 }, "geometry": { "type": "Point", "coordinates": [ 25.0113099995569, 60.2472500001874 ] } },
{ "type": "Feature", "properties": { "name": "Ala-Malmin raitti", "lyhyt_tunn": "H3703", "passengers": 0 }, "geometry": { "type": "Point", "coordinates": [ 25.015509999886699, 60.249283999557001 ] } },
{ "type": "Feature", "properties": { "name": "Ala-Malmin raitti", "lyhyt_tunn": "H3460", "passengers": 0 }, "geometry": { "type": "Point", "coordinates": [ 25.016539999721299, 60.2495199996483 ] } },
{ "type": "Feature", "properties": { "name": "Alaniementie", "lyhyt_tunn": "E7211", "passengers": 17 }, "geometry": { "type": "Point", "coordinates": [ 24.761279999572398, 60.301549999632797 ] } },
{ "type": "Feature", "properties": { "name": "Alaportti", "lyhyt_tunn": "E3243", "passengers": 165 }, "geometry": { "type": "Point", "coordinates": [ 24.7336899997937, 60.174789999658799 ] } },
{ "type": "Feature", "properties": { "name": "Alaportti", "lyhyt_tunn": "E3244", "passengers": 435 }, "geometry": { "type": "Point", "coordinates": [ 24.733680000231899, 60.174679999982096 ] } },
{ "type": "Feature", "properties": { "name": "Ala-Soukka", "lyhyt_tunn": "E4128", "passengers": 6 }, "geometry": { "type": "Point", "coordinates": [ 24.6770900004033, 60.138459999729299 ] } },
{ "type": "Feature", "properties": { "name": "Ala-Soukka", "lyhyt_tunn": "E4129", "passengers": 11 }, "geometry": { "type": "Point", "coordinates": [ 24.677289999733802, 60.138670000420198 ] } },
{ "type": "Feature", "properties": { "name": "Ala-Tikkurila", "lyhyt_tunn": "H3354", "passengers": 148 }, "geometry": { "type": "Point", "coordinates": [ 25.014950000142399, 60.2869299999196 ] } },
{ "type": "Feature", "properties": { "name": "Alatörmä", "lyhyt_tunn": "E4124", "passengers": 2 }, "geometry": { "type": "Point", "coordinates": [ 24.6727200003278, 60.1361700002454 ] } },
{ "type": "Feature", "properties": { "name": "Alatörmä", "lyhyt_tunn": "E4125", "passengers": 140 }, "geometry": { "type": "Point", "coordinates": [ 24.672870000050501, 60.1360599996693 ] } },
{ "type": "Feature", "properties": { "name": "Albackantie", "lyhyt_tunn": "Si1913", "passengers": 4 }, "geometry": { "type": "Point", "coordinates": [ 25.2348930003118, 60.3905999998901 ] } },
{ "type": "Feature", "properties": { "name": "Albackantie", "lyhyt_tunn": "Si1914", "passengers": 3 }, "geometry": { "type": "Point", "coordinates": [ 25.235358000171601, 60.390622000005401 ] } },
{ "type": "Feature", "properties": { "name": "Albertinkatu", "lyhyt_tunn": "H1006", "passengers": 1 }, "geometry": { "type": "Point", "coordinates": [ 24.936030000284301, 60.162770000235398 ] } },
{ "type": "Feature", "properties": { "name": "Alkutie", "lyhyt_tunn": "H2241", "passengers": 242 }, "geometry": { "type": "Point", "coordinates": [ 24.9289399997812, 60.237429999694797 ] } },
{ "type": "Feature", "properties": { "name": "Alkutie", "lyhyt_tunn": "H2240", "passengers": 588 }, "geometry": { "type": "Point", "coordinates": [ 24.929019999873201, 60.2366400001359 ] } },
{ "type": "Feature", "properties": { "name": "Alokastie", "lyhyt_tunn": "E1934", "passengers": 39 }, "geometry": { "type": "Point", "coordinates": [ 24.8310999997652, 60.245189999618802 ] } },
{ "type": "Feature", "properties": { "name": "Alokastie", "lyhyt_tunn": "E1935", "passengers": 1 }, "geometry": { "type": "Point", "coordinates": [ 24.831187000180002, 60.245025000103702 ] } },
{ "type": "Feature", "properties": { "name": "Alvallantie", "lyhyt_tunn": "Si1006", "passengers": 3 }, "geometry": { "type": "Point", "coordinates": [ 25.298328000137101, 60.284302000137203 ] } },
{ "type": "Feature", "properties": { "name": "Alvar Aallon puisto", "lyhyt_tunn": "E2229", "passengers": 135 }, "geometry": { "type": "Point", "coordinates": [ 24.8291450004415, 60.183984000061599 ] } },
{ "type": "Feature", "properties": { "name": "Alvar Aallon puisto", "lyhyt_tunn": "E2226", "passengers": 1723 }, "geometry": { "type": "Point", "coordinates": [ 24.829160000233902, 60.1838900002234 ] } },
{ "type": "Feature", "properties": { "name": "Amiraalin puistotie", "lyhyt_tunn": "E4001", "passengers": 55 }, "geometry": { "type": "Point", "coordinates": [ 24.662690000043501, 60.152140000160998 ] } },
{ "type": "Feature", "properties": { "name": "Amiraalin puistotie", "lyhyt_tunn": "E4002", "passengers": 126 }, "geometry": { "type": "Point", "coordinates": [ 24.662715000297101, 60.152264999630098 ] } },
{ "type": "Feature", "properties": { "name": "Amiraalinmäki", "lyhyt_tunn": "E4010", "passengers": 30 }, "geometry": { "type": "Point", "coordinates": [ 24.665059999619402, 60.1518300002543 ] } },
{ "type": "Feature", "properties": { "name": "Amiraalinmäki", "lyhyt_tunn": "E4011", "passengers": 67 }, "geometry": { "type": "Point", "coordinates": [ 24.666289999683801, 60.150110000076502 ] } },
{ "type": "Feature", "properties": { "name": "Ammattikoulu", "lyhyt_tunn": "H4772", "passengers": 15 }, "geometry": { "type": "Point", "coordinates": [ 25.062136999822702, 60.206200000229899 ] } },
{ "type": "Feature", "properties": { "name": "Ampujanmäki", "lyhyt_tunn": "E4141", "passengers": 31 }, "geometry": { "type": "Point", "coordinates": [ 24.676489999713802, 60.124559999944097 ] } },
{ "type": "Feature", "properties": { "name": "Ampujanmäki", "lyhyt_tunn": "E4142", "passengers": 0 }, "geometry": { "type": "Point", "coordinates": [ 24.6767700000355, 60.124559999944097 ] } },
{ "type": "Feature", "properties": { "name": "Andersberg", "lyhyt_tunn": "Ki0940", "passengers": 1 }, "geometry": { "type": "Point", "coordinates": [ 24.489897999693, 60.036237999983797 ] } },
{ "type": "Feature", "properties": { "name": "Anfallinkuja", "lyhyt_tunn": "E7123", "passengers": 0 }, "geometry": { "type": "Point", "coordinates": [ 24.729149999972499, 60.267880000062 ] } },
{ "type": "Feature", "properties": { "name": "Anfallinkuja", "lyhyt_tunn": "E7124", "passengers": 0 }, "geometry": { "type": "Point", "coordinates": [ 24.730429999644802, 60.267659999809197 ] } },
{ "type": "Feature", "properties": { "name": "Angervontie", "lyhyt_tunn": "Ke0602", "passengers": 1 }, "geometry": { "type": "Point", "coordinates": [ 25.0932999997952, 60.371389999848603 ] } },
{ "type": "Feature", "properties": { "name": "Angervontie", "lyhyt_tunn": "Ke0902", "passengers": 21 }, "geometry": { "type": "Point", "coordinates": [ 25.093740000300802, 60.371839999916098 ] } },
{ "type": "Feature", "properties": { "name": "Angervotie", "lyhyt_tunn": "H1669", "passengers": 46 }, "geometry": { "type": "Point", "coordinates": [ 24.890510000136398, 60.217659999909102 ] } },
{ "type": "Feature", "properties": { "name": "Angervotie", "lyhyt_tunn": "H1668", "passengers": 98 }, "geometry": { "type": "Point", "coordinates": [ 24.890900000134899, 60.217359999564401 ] } },
{ "type": "Feature", "properties": { "name": "Anjankuja", "lyhyt_tunn": "E3105", "passengers": 75 }, "geometry": { "type": "Point", "coordinates": [ 24.742759999874099, 60.157910000046499 ] } },
{ "type": "Feature", "properties": { "name": "Annalantie", "lyhyt_tunn": "H3046", "passengers": 525 }, "geometry": { "type": "Point", "coordinates": [ 24.978440000006099, 60.2125200002978 ] } },
{ "type": "Feature", "properties": { "name": "Annalantie", "lyhyt_tunn": "H3047", "passengers": 166 }, "geometry": { "type": "Point", "coordinates": [ 24.9791700003952, 60.213160000133897 ] } },
{ "type": "Feature", "properties": { "name": "Annanbackantie", "lyhyt_tunn": "Si2501", "passengers": 5 }, "geometry": { "type": "Point", "coordinates": [ 25.318286999645402, 60.408782000189198 ] } },
{ "type": "Feature", "properties": { "name": "Annankatu", "lyhyt_tunn": "H1004", "passengers": 0 }, "geometry": { "type": "Point", "coordinates": [ 24.940940000081, 60.164490000413302 ] } },
{ "type": "Feature", "properties": { "name": "Annantie", "lyhyt_tunn": "Ke0501", "passengers": 7 }, "geometry": { "type": "Point", "coordinates": [ 25.145383000425198, 60.406755000243102 ] } },
{ "type": "Feature", "properties": { "name": "Annebergintie", "lyhyt_tunn": "Ki0804", "passengers": 0 }, "geometry": { "type": "Point", "coordinates": [ 24.376973000103899, 60.054922000050297 ] } },
{ "type": "Feature", "properties": { "name": "Ansaritie", "lyhyt_tunn": "H1439", "passengers": 28 }, "geometry": { "type": "Point", "coordinates": [ 24.884840000365799, 60.208279999922098 ] } },
{ "type": "Feature", "properties": { "name": "Ansaritie", "lyhyt_tunn": "H1438", "passengers": 68 }, "geometry": { "type": "Point", "coordinates": [ 24.885779999647301, 60.208369999575901 ] } },
{ "type": "Feature", "properties": { "name": "Ansatie", "lyhyt_tunn": "V4196", "passengers": 51 }, "geometry": { "type": "Point", "coordinates": [ 24.929920000008099, 60.297259999649299 ] } },
{ "type": "Feature", "properties": { "name": "Ansatie", "lyhyt_tunn": "V4197", "passengers": 112 }, "geometry": { "type": "Point", "coordinates": [ 24.931649999747702, 60.296770000435203 ] } },
{ "type": "Feature", "properties": { "name": "Antaksenpolku", "lyhyt_tunn": "V5128", "passengers": 55 }, "geometry": { "type": "Point", "coordinates": [ 24.946772000127702, 60.293334000263897 ] } },
{ "type": "Feature", "properties": { "name": "Antaksenpolku", "lyhyt_tunn": "V5153", "passengers": 97 }, "geometry": { "type": "Point", "coordinates": [ 24.946491999806, 60.293224999734001 ] } },
{ "type": "Feature", "properties": { "name": "Antaksentie", "lyhyt_tunn": "V5115", "passengers": 161 }, "geometry": { "type": "Point", "coordinates": [ 24.9522199995534, 60.293697999962802 ] } },
{ "type": "Feature", "properties": { "name": "Antinmäki", "lyhyt_tunn": "E7139", "passengers": 1 }, "geometry": { "type": "Point", "coordinates": [ 24.737859999639301, 60.295679999632299 ] } },
{ "type": "Feature", "properties": { "name": "Antinmäki", "lyhyt_tunn": "E7151", "passengers": 6 }, "geometry": { "type": "Point", "coordinates": [ 24.7386700001205, 60.295130000349303 ] } },
{ "type": "Feature", "properties": { "name": "Antmäki", "lyhyt_tunn": "Si1910", "passengers": 2 }, "geometry": { "type": "Point", "coordinates": [ 25.229622000055301, 60.387075000111203 ] } },
{ "type": "Feature", "properties": { "name": "Antmäki", "lyhyt_tunn": "Si1911", "passengers": 8 }, "geometry": { "type": "Point", "coordinates": [ 25.230305000075798, 60.386438000413399 ] } },
{ "type": "Feature", "properties": { "name": "Antti Korpin tie", "lyhyt_tunn": "H3085", "passengers": 10 }, "geometry": { "type": "Point", "coordinates": [ 24.966820000142899, 60.218150000022497 ] } },
{ "type": "Feature", "properties": { "name": "Antti Korpin tie", "lyhyt_tunn": "H3086", "passengers": 462 }, "geometry": { "type": "Point", "coordinates": [ 24.966269999960598, 60.218390000298299 ] } },
{ "type": "Feature", "properties": { "name": "Anttilantie", "lyhyt_tunn": "V8801", "passengers": 5 }, "geometry": { "type": "Point", "coordinates": [ 25.075261999841501, 60.3686700003203 ] } },
{ "type": "Feature", "properties": { "name": "Anttilantie", "lyhyt_tunn": "V8802", "passengers": 178 }, "geometry": { "type": "Point", "coordinates": [ 25.074060000168899, 60.368040000046001 ] } },
{ "type": "Feature", "properties": { "name": "Anttilantie", "lyhyt_tunn": "V8813", "passengers": 15 }, "geometry": { "type": "Point", "coordinates": [ 25.0753900003483, 60.368080000092 ] } },
{ "type": "Feature", "properties": { "name": "Apajapolku", "lyhyt_tunn": "H1474", "passengers": 1 }, "geometry": { "type": "Point", "coordinates": [ 24.863436999917699, 60.200391000344403 ] } },
{ "type": "Feature", "properties": { "name": "Apilapuisto", "lyhyt_tunn": "V6858", "passengers": 3 }, "geometry": { "type": "Point", "coordinates": [ 25.0052449995571, 60.2937070003778 ] } },
{ "type": "Feature", "properties": { "name": "Apilapuisto", "lyhyt_tunn": "V6859", "passengers": 1 }, "geometry": { "type": "Point", "coordinates": [ 25.0051099996268, 60.294399999960099 ] } },
{ "type": "Feature", "properties": { "name": "Apilarinne", "lyhyt_tunn": "E7119", "passengers": 0 }, "geometry": { "type": "Point", "coordinates": [ 24.721459999679301, 60.269219999803198 ] } },
{ "type": "Feature", "properties": { "name": "Apilarinne", "lyhyt_tunn": "E7120", "passengers": 1 }, "geometry": { "type": "Point", "coordinates": [ 24.7214500001174, 60.269330000379298 ] } },
{ "type": "Feature", "properties": { "name": "Apollonkatu", "lyhyt_tunn": "H1307", "passengers": 1740 }, "geometry": { "type": "Point", "coordinates": [ 24.9221299995999, 60.175829999954601 ] } },
{ "type": "Feature", "properties": { "name": "Apollonkatu", "lyhyt_tunn": "H1308", "passengers": 1196 }, "geometry": { "type": "Point", "coordinates": [ 24.921939999831199, 60.1756800002319 ] } },
{ "type": "Feature", "properties": { "name": "Arabia", "lyhyt_tunn": "H3042", "passengers": 565 }, "geometry": { "type": "Point", "coordinates": [ 24.974740000250801, 60.208079999692302 ] } },
{ "type": "Feature", "properties": { "name": "Arabia", "lyhyt_tunn": "H3043", "passengers": 223 }, "geometry": { "type": "Point", "coordinates": [ 24.9750399996963, 60.208270000360301 ] } },
{ "type": "Feature", "properties": { "name": "Arabiankatu", "lyhyt_tunn": "H3492", "passengers": 82 }, "geometry": { "type": "Point", "coordinates": [ 24.974545000251599, 60.207027999742401 ] } },
{ "type": "Feature", "properties": { "name": "Arabianranta", "lyhyt_tunn": "H3490", "passengers": 124 }, "geometry": { "type": "Point", "coordinates": [ 24.9794909999098, 60.209602999778703 ] } },
{ "type": "Feature", "properties": { "name": "Arhotie", "lyhyt_tunn": "H4283", "passengers": 97 }, "geometry": { "type": "Point", "coordinates": [ 25.083779999647302, 60.217749999562898 ] } },
{ "type": "Feature", "properties": { "name": "Arhotie", "lyhyt_tunn": "H4282", "passengers": 47 }, "geometry": { "type": "Point", "coordinates": [ 25.083509999786699, 60.217519999748198 ] } },
{ "type": "Feature", "properties": { "name": "Arhotie", "lyhyt_tunn": "H4822", "passengers": 7 }, "geometry": { "type": "Point", "coordinates": [ 25.0857679995935, 60.218237999584098 ] } },
{ "type": "Feature", "properties": { "name": "Arkadian puisto", "lyhyt_tunn": "H1272", "passengers": 22 }, "geometry": { "type": "Point", "coordinates": [ 24.933380000386801, 60.171120000387802 ] } },
{ "type": "Feature", "properties": { "name": "Arkadianportaat", "lyhyt_tunn": "E1989", "passengers": 0 }, "geometry": { "type": "Point", "coordinates": [ 24.815921000353899, 60.2212920001257 ] } },
{ "type": "Feature", "properties": { "name": "Arkadianportaat", "lyhyt_tunn": "E1990", "passengers": 1 }, "geometry": { "type": "Point", "coordinates": [ 24.8163749997065, 60.221378999641203 ] } },
{ "type": "Feature", "properties": { "name": "Arttelikuja", "lyhyt_tunn": "E4448", "passengers": 40 }, "geometry": { "type": "Point", "coordinates": [ 24.7040000002998, 60.145730000439201 ] } },
{ "type": "Feature", "properties": { "name": "Arttelikuja", "lyhyt_tunn": "E4449", "passengers": 0 }, "geometry": { "type": "Point", "coordinates": [ 24.7032299998647, 60.145530000209398 ] } },
{ "type": "Feature", "properties": { "name": "Arttolantie", "lyhyt_tunn": "H3348", "passengers": 157 }, "geometry": { "type": "Point", "coordinates": [ 25.0284700003903, 60.2805299997597 ] } },
{ "type": "Feature", "properties": { "name": "Arttolantie", "lyhyt_tunn": "H3349", "passengers": 1 }, "geometry": { "type": "Point", "coordinates": [ 25.028760000273799, 60.280640000335801 ] } },
{ "type": "Feature", "properties": { "name": "Artur Lindholmin tie", "lyhyt_tunn": "Ki0825", "passengers": 5 }, "geometry": { "type": "Point", "coordinates": [ 24.448219999553402, 60.080036999907698 ] } },
{ "type": "Feature", "properties": { "name": "Artur Lindholmin tie", "lyhyt_tunn": "Ki0826", "passengers": 0 }, "geometry": { "type": "Point", "coordinates": [ 24.447652000339598, 60.079950000392301 ] } },
{ "type": "Feature", "properties": { "name": "Asemansilta", "lyhyt_tunn": "Ke0409", "passengers": 6 }, "geometry": { "type": "Point", "coordinates": [ 25.106029999584798, 60.403289999633799 ] } },
{ "type": "Feature", "properties": { "name": "Asemansilta", "lyhyt_tunn": "Ke0410", "passengers": 35 }, "geometry": { "type": "Point", "coordinates": [ 25.107259999649301, 60.403139999911097 ] } },
{ "type": "Feature", "properties": { "name": "Asemapäällikönkatu", "lyhyt_tunn": "H0663", "passengers": 111 }, "geometry": { "type": "Point", "coordinates": [ 24.940496000290199, 60.198243000214298 ] } },
{ "type": "Feature", "properties": { "name": "Asemapäällikönkatu", "lyhyt_tunn": "H0662", "passengers": 309 }, "geometry": { "type": "Point", "coordinates": [ 24.940326999691301, 60.198036999707803 ] } },
{ "type": "Feature", "properties": { "name": "Asentajankatu 3", "lyhyt_tunn": "H4172", "passengers": 163 }, "geometry": { "type": "Point", "coordinates": [ 25.043962999892599, 60.198750000212399 ] } },
{ "type": "Feature", "properties": { "name": "Asentajankatu 6", "lyhyt_tunn": "H4171", "passengers": 61 }, "geometry": { "type": "Point", "coordinates": [ 25.042880000311801, 60.199049999657802 ] } },
{ "type": "Feature", "properties": { "name": "Asessorintie", "lyhyt_tunn": "H2295", "passengers": 1 }, "geometry": { "type": "Point", "coordinates": [ 24.953660000308801, 60.259540000370698 ] } },
{ "type": "Feature", "properties": { "name": "Asessorintie", "lyhyt_tunn": "H2294", "passengers": 55 }, "geometry": { "type": "Point", "coordinates": [ 24.953279999872201, 60.259010000211397 ] } },
{ "type": "Feature", "properties": { "name": "Aseveljentie", "lyhyt_tunn": "E1962", "passengers": 41 }, "geometry": { "type": "Point", "coordinates": [ 24.8245099998367, 60.2288299997048 ] } },
{ "type": "Feature", "properties": { "name": "Asiakkaankatu", "lyhyt_tunn": "H4494", "passengers": 16 }, "geometry": { "type": "Point", "coordinates": [ 25.082299999745299, 60.207800000269899 ] } },
{ "type": "Feature", "properties": { "name": "Asiakkaankatu", "lyhyt_tunn": "H4495", "passengers": 10 }, "geometry": { "type": "Point", "coordinates": [ 25.0818699997008, 60.207789999808703 ] } },
{ "type": "Feature", "properties": { "name": "Askistontie", "lyhyt_tunn": "V2006", "passengers": 48 }, "geometry": { "type": "Point", "coordinates": [ 24.787179999657301, 60.286609999551899 ] } },
{ "type": "Feature", "properties": { "name": "Atomitie", "lyhyt_tunn": "H1615", "passengers": 24 }, "geometry": { "type": "Point", "coordinates": [ 24.865229999864699, 60.223890000323301 ] } },
{ "type": "Feature", "properties": { "name": "Atomitie", "lyhyt_tunn": "H1614", "passengers": 113 }, "geometry": { "type": "Point", "coordinates": [ 24.8671999998801, 60.224360000413803 ] } },
{ "type": "Feature", "properties": { "name": "Aulangontie", "lyhyt_tunn": "H3017", "passengers": 2 }, "geometry": { "type": "Point", "coordinates": [ 25.000600000289801, 60.229439999956099 ] } },
{ "type": "Feature", "properties": { "name": "Aulangontie", "lyhyt_tunn": "H3016", "passengers": 0 }, "geometry": { "type": "Point", "coordinates": [ 25.0002100002913, 60.229540000070998 ] } },
{ "type": "Feature", "properties": { "name": "Auratie", "lyhyt_tunn": "Ke0510", "passengers": 14 }, "geometry": { "type": "Point", "coordinates": [ 25.146339999591401, 60.391640000185902 ] } },
{ "type": "Feature", "properties": { "name": "Auratie", "lyhyt_tunn": "Ke0511", "passengers": 52 }, "geometry": { "type": "Point", "coordinates": [ 25.146650000397202, 60.3921399998612 ] } },
{ "type": "Feature", "properties": { "name": "Auringonkatu", "lyhyt_tunn": "E3266", "passengers": 134 }, "geometry": { "type": "Point", "coordinates": [ 24.730680000381799, 60.1727099999666 ] } },
{ "type": "Feature", "properties": { "name": "Auringonkatu", "lyhyt_tunn": "E3267", "passengers": 194 }, "geometry": { "type": "Point", "coordinates": [ 24.731619999663302, 60.171559999994003 ] } },
{ "type": "Feature", "properties": { "name": "Aurinkokivenkuja", "lyhyt_tunn": "V2333", "passengers": 38 }, "geometry": { "type": "Point", "coordinates": [ 24.852350000352299, 60.318549000236203 ] } },
{ "type": "Feature", "properties": { "name": "Aurinkokivenkuja", "lyhyt_tunn": "V2334", "passengers": 5 }, "geometry": { "type": "Point", "coordinates": [ 24.8508009999662, 60.317929000423099 ] } },
{ "type": "Feature", "properties": { "name": "Aurinkol. puistotie", "lyhyt_tunn": "H4648", "passengers": 42 }, "geometry": { "type": "Point", "coordinates": [ 25.147029999934599, 60.204029999984598 ] } },
{ "type": "Feature", "properties": { "name": "Aurinkol. puistotie", "lyhyt_tunn": "H4647", "passengers": 24 }, "geometry": { "type": "Point", "coordinates": [ 25.147190000118499, 60.204009999961599 ] } },
{ "type": "Feature", "properties": { "name": "Aurinkolahti", "lyhyt_tunn": "H4603", "passengers": 4 }, "geometry": { "type": "Point", "coordinates": [ 25.158430000444199, 60.2085400002209 ] } },
{ "type": "Feature", "properties": { "name": "Aurinkolahti", "lyhyt_tunn": "H4658", "passengers": 176 }, "geometry": { "type": "Point", "coordinates": [ 25.157760000124, 60.207829999854702 ] } },
{ "type": "Feature", "properties": { "name": "Aurinkolahti", "lyhyt_tunn": "H4602", "passengers": 1 }, "geometry": { "type": "Point", "coordinates": [ 25.156499999575399, 60.208299999945098 ] } },
{ "type": "Feature", "properties": { "name": "Aurinkoniityntie", "lyhyt_tunn": "E6833", "passengers": 1 }, "geometry": { "type": "Point", "coordinates": [ 24.655059999819201, 60.2502000004297 ] } },
{ "type": "Feature", "properties": { "name": "Aurinkoniityntie", "lyhyt_tunn": "E6834", "passengers": 6 }, "geometry": { "type": "Point", "coordinates": [ 24.654830000004601, 60.250189999968597 ] } },
{ "type": "Feature", "properties": { "name": "Aurinkotuulenkatu", "lyhyt_tunn": "H4654", "passengers": 122 }, "geometry": { "type": "Point", "coordinates": [ 25.1589900001884, 60.203180000356802 ] } },
{ "type": "Feature", "properties": { "name": "Aurinkotuulenkatu", "lyhyt_tunn": "H4653", "passengers": 0 }, "geometry": { "type": "Point", "coordinates": [ 25.159170000395299, 60.203140000310803 ] } },
{ "type": "Feature", "properties": { "name": "Auroran koulu", "lyhyt_tunn": "E1533", "passengers": 32 }, "geometry": { "type": "Point", "coordinates": [ 24.716320000067999, 60.232140000360801 ] } },
{ "type": "Feature", "properties": { "name": "Auroran koulu", "lyhyt_tunn": "E1534", "passengers": 58 }, "geometry": { "type": "Point", "coordinates": [ 24.716090000253399, 60.231940000130997 ] } },
{ "type": "Feature", "properties": { "name": "Auroran sairaala", "lyhyt_tunn": "H2073", "passengers": 276 }, "geometry": { "type": "Point", "coordinates": [ 24.925540000370699, 60.191449999917602 ] } },
{ "type": "Feature", "properties": { "name": "Auroran sairaala", "lyhyt_tunn": "H2072", "passengers": 71 }, "geometry": { "type": "Point", "coordinates": [ 24.923660000009001, 60.191229999664799 ] } },
{ "type": "Feature", "properties": { "name": "Auroranportti", "lyhyt_tunn": "E6343", "passengers": 128 }, "geometry": { "type": "Point", "coordinates": [ 24.704219999653301, 60.237850000177403 ] } },
{ "type": "Feature", "properties": { "name": "Auroranportti", "lyhyt_tunn": "E6344", "passengers": 68 }, "geometry": { "type": "Point", "coordinates": [ 24.704979999627302, 60.238440000405802 ] } },
{ "type": "Feature", "properties": { "name": "Autioniityntie", "lyhyt_tunn": "Ki0324", "passengers": 12 }, "geometry": { "type": "Point", "coordinates": [ 24.511950000392201, 60.139087999911297 ] } },
{ "type": "Feature", "properties": { "name": "Autioniityntie", "lyhyt_tunn": "Ki0325", "passengers": 41 }, "geometry": { "type": "Point", "coordinates": [ 24.513470000340298, 60.139436999817697 ] } },
{ "type": "Feature", "properties": { "name": "Autokuljetuskeskus 1", "lyhyt_tunn": "H2204", "passengers": 8 }, "geometry": { "type": "Point", "coordinates": [ 24.922819999943101, 60.218700000204898 ] } },
{ "type": "Feature", "properties": { "name": "Autokuljetuskeskus 1", "lyhyt_tunn": "H2203", "passengers": 1 }, "geometry": { "type": "Point", "coordinates": [ 24.9231099998267, 60.218809999881699 ] } },
{ "type": "Feature", "properties": { "name": "Autokuljetuskeskus 2", "lyhyt_tunn": "H2205", "passengers": 33 }, "geometry": { "type": "Point", "coordinates": [ 24.9299699996158, 60.220799999920096 ] } },
{ "type": "Feature", "properties": { "name": "Autokuljetuskeskus 2", "lyhyt_tunn": "H2206", "passengers": 36 }, "geometry": { "type": "Point", "coordinates": [ 24.9281199997383, 60.220889999573899 ] } },
{ "type": "Feature", "properties": { "name": "Avaintie", "lyhyt_tunn": "V1433", "passengers": 74 }, "geometry": { "type": "Point", "coordinates": [ 24.824790000158401, 60.268439999806198 ] } },
{ "type": "Feature", "properties": { "name": "Avaintie", "lyhyt_tunn": "V1434", "passengers": 4 }, "geometry": { "type": "Point", "coordinates": [ 24.8245299998596, 60.268279999622301 ] } },
{ "type": "Feature", "properties": { "name": "Avaruuskatu", "lyhyt_tunn": "E3202", "passengers": 119 }, "geometry": { "type": "Point", "coordinates": [ 24.724570000105501, 60.169216999864702 ] } },
{ "type": "Feature", "properties": { "name": "Avaruuskatu", "lyhyt_tunn": "E3203", "passengers": 96 }, "geometry": { "type": "Point", "coordinates": [ 24.7238500001774, 60.169580000416701 ] } },
{ "type": "Feature", "properties": { "name": "Aviapolis", "lyhyt_tunn": "V5236", "passengers": 15 }, "geometry": { "type": "Point", "coordinates": [ 24.95627799963, 60.303393000086899 ] } },
{ "type": "Feature", "properties": { "name": "Aviapolis", "lyhyt_tunn": "V5265", "passengers": 119 }, "geometry": { "type": "Point", "coordinates": [ 24.9561999996303, 60.303400000409702 ] } },
{ "type": "Feature", "properties": { "name": "Aviapolis", "lyhyt_tunn": "V5266", "passengers": 27 }, "geometry": { "type": "Point", "coordinates": [ 24.9557270003009, 60.302737999559099 ] } },
{ "type": "Feature", "properties": { "name": "Aviapolis", "lyhyt_tunn": "V5269", "passengers": 515 }, "geometry": { "type": "Point", "coordinates": [ 24.9552519999799, 60.302518000205602 ] } },
{ "type": "Feature", "properties": { "name": "Backafallintie", "lyhyt_tunn": "Ki1428", "passengers": 1 }, "geometry": { "type": "Point", "coordinates": [ 24.437570000355301, 60.220593000266803 ] } },
{ "type": "Feature", "properties": { "name": "Backas", "lyhyt_tunn": "V5114", "passengers": 1 }, "geometry": { "type": "Point", "coordinates": [ 24.955909999746702, 60.286239999576402 ] } },
{ "type": "Feature", "properties": { "name": "Backas Keimola", "lyhyt_tunn": "V2320", "passengers": 4 }, "geometry": { "type": "Point", "coordinates": [ 24.8182400002759, 60.338589999928601 ] } },
{ "type": "Feature", "properties": { "name": "Bakträsk", "lyhyt_tunn": "Ki1512", "passengers": 0 }, "geometry": { "type": "Point", "coordinates": [ 24.379710000416299, 60.199209999841699 ] } },
{ "type": "Feature", "properties": { "name": "Bastukärr", "lyhyt_tunn": "Si1803", "passengers": 10 }, "geometry": { "type": "Point", "coordinates": [ 25.1654939997483, 60.3837939998932 ] } },
{ "type": "Feature", "properties": { "name": "Bemböle", "lyhyt_tunn": "E6303", "passengers": 87 }, "geometry": { "type": "Point", "coordinates": [ 24.6757699997857, 60.222629999774703 ] } },
{ "type": "Feature", "properties": { "name": "Bemböle", "lyhyt_tunn": "E6304", "passengers": 45 }, "geometry": { "type": "Point", "coordinates": [ 24.677960000054, 60.222480000052002 ] } },
{ "type": "Feature", "properties": { "name": "Bemböle skola", "lyhyt_tunn": "E6319", "passengers": 29 }, "geometry": { "type": "Point", "coordinates": [ 24.677400000309799, 60.223079999842199 ] } },
{ "type": "Feature", "properties": { "name": "Bemböle skola", "lyhyt_tunn": "E6348", "passengers": 1 }, "geometry": { "type": "Point", "coordinates": [ 24.677220000102999, 60.223050000257402 ] } },
{ "type": "Feature", "properties": { "name": "Bembölensilta", "lyhyt_tunn": "E6158", "passengers": 14 }, "geometry": { "type": "Point", "coordinates": [ 24.667889999723698, 60.222190000168403 ] } },
{ "type": "Feature", "properties": { "name": "Bergantie", "lyhyt_tunn": "Ki1329", "passengers": 2 }, "geometry": { "type": "Point", "coordinates": [ 24.391709999816701, 60.233227000126 ] } },
{ "type": "Feature", "properties": { "name": "Bergantie", "lyhyt_tunn": "Ki1330", "passengers": 0 }, "geometry": { "type": "Point", "coordinates": [ 24.391899999585299, 60.233299999895102 ] } },
{ "type": "Feature", "properties": { "name": "Bergkullantie", "lyhyt_tunn": "Si0413", "passengers": 2 }, "geometry": { "type": "Point", "coordinates": [ 25.287839000269699, 60.263888000331001 ] } },
{ "type": "Feature", "properties": { "name": "Bergstadintie", "lyhyt_tunn": "Ki0913", "passengers": 4 }, "geometry": { "type": "Point", "coordinates": [ 24.503566999617401, 60.048111999869 ] } },
{ "type": "Feature", "properties": { "name": "Bergstadintie", "lyhyt_tunn": "Ki0914", "passengers": 0 }, "geometry": { "type": "Point", "coordinates": [ 24.503336999802698, 60.048189999868697 ] } },
{ "type": "Feature", "properties": { "name": "Bergträskinpolku", "lyhyt_tunn": "Ki0509", "passengers": 6 }, "geometry": { "type": "Point", "coordinates": [ 24.3770819997346, 60.121222999841599 ] } },
{ "type": "Feature", "properties": { "name": "Bergträskinpolku", "lyhyt_tunn": "Ki0510", "passengers": 0 }, "geometry": { "type": "Point", "coordinates": [ 24.376224999784, 60.121141999703603 ] } },
{ "type": "Feature", "properties": { "name": "Bergåsantie", "lyhyt_tunn": "Si0833", "passengers": 0 }, "geometry": { "type": "Point", "coordinates": [ 25.359142999649698, 60.299152999711197 ] } },
{ "type": "Feature", "properties": { "name": "Bergö", "lyhyt_tunn": "E4513", "passengers": 0 }, "geometry": { "type": "Point", "coordinates": [ 24.711020000272899, 60.114270000260397 ] } },
{ "type": "Feature", "properties": { "name": "Bergö", "lyhyt_tunn": "E4514", "passengers": 1 }, "geometry": { "type": "Point", "coordinates": [ 24.711840000315799, 60.114350000352303 ] } },
{ "type": "Feature", "properties": { "name": "Biologinkatu", "lyhyt_tunn": "H3483", "passengers": 12 }, "geometry": { "type": "Point", "coordinates": [ 25.041650000247401, 60.235080000141899 ] } },
{ "type": "Feature", "properties": { "name": "Biologinkatu", "lyhyt_tunn": "H3482", "passengers": 171 }, "geometry": { "type": "Point", "coordinates": [ 25.040449999767699, 60.235309999956598 ] } },
{ "type": "Feature", "properties": { "name": "Biströminmäki", "lyhyt_tunn": "E5101", "passengers": 0 }, "geometry": { "type": "Point", "coordinates": [ 24.6212500000875, 60.198249999637802 ] } },
{ "type": "Feature", "properties": { "name": "Biströminmäki", "lyhyt_tunn": "E5102", "passengers": 1 }, "geometry": { "type": "Point", "coordinates": [ 24.622170000245401, 60.198340000190903 ] } },
{ "type": "Feature", "properties": { "name": "Björkbacka", "lyhyt_tunn": "Si2905", "passengers": 2 }, "geometry": { "type": "Point", "coordinates": [ 25.295147000034099, 60.3928320002966 ] } },
{ "type": "Feature", "properties": { "name": "Björkmontie", "lyhyt_tunn": "Si2717", "passengers": 1 }, "geometry": { "type": "Point", "coordinates": [ 25.2171199999881, 60.466915000127202 ] } },
{ "type": "Feature", "properties": { "name": "Bobäcks skola", "lyhyt_tunn": "Ki0244", "passengers": 26 }, "geometry": { "type": "Point", "coordinates": [ 24.545682000124302, 60.176757000435302 ] } },
{ "type": "Feature", "properties": { "name": "Bodom Smeds", "lyhyt_tunn": "E7035", "passengers": 0 }, "geometry": { "type": "Point", "coordinates": [ 24.689539999871201, 60.268680000082 ] } },
{ "type": "Feature", "properties": { "name": "Bodom Smeds", "lyhyt_tunn": "E7036", "passengers": 0 }, "geometry": { "type": "Point", "coordinates": [ 24.6901700001454, 60.267829999554898 ] } },
{ "type": "Feature", "properties": { "name": "Bodominkartano", "lyhyt_tunn": "E7033", "passengers": 1 }, "geometry": { "type": "Point", "coordinates": [ 24.691529999909601, 60.262270000360303 ] } },
{ "type": "Feature", "properties": { "name": "Bodominkartano", "lyhyt_tunn": "E7034", "passengers": 0 }, "geometry": { "type": "Point", "coordinates": [ 24.691509999886598, 60.262310000406302 ] } },
{ "type": "Feature", "properties": { "name": "Bondarbyntie", "lyhyt_tunn": "Ki0602", "passengers": 1 }, "geometry": { "type": "Point", "coordinates": [ 24.498814999912401, 60.097985000207601 ] } },
{ "type": "Feature", "properties": { "name": "Borgströminkuja", "lyhyt_tunn": "H4147", "passengers": 1 }, "geometry": { "type": "Point", "coordinates": [ 25.038169999845699, 60.175199999680302 ] } },
{ "type": "Feature", "properties": { "name": "Borgströminkuja", "lyhyt_tunn": "H4146", "passengers": 66 }, "geometry": { "type": "Point", "coordinates": [ 25.038009999661799, 60.175139999611403 ] } },
{ "type": "Feature", "properties": { "name": "Bosmedsinkuja", "lyhyt_tunn": "E7194", "passengers": 0 }, "geometry": { "type": "Point", "coordinates": [ 24.6910650000498, 60.264892999912099 ] } },
{ "type": "Feature", "properties": { "name": "Bosund", "lyhyt_tunn": "E4510", "passengers": 13 }, "geometry": { "type": "Point", "coordinates": [ 24.716950000342301, 60.121080000441701 ] } },
{ "type": "Feature", "properties": { "name": "Box", "lyhyt_tunn": "Si1313", "passengers": 2 }, "geometry": { "type": "Point", "coordinates": [ 25.387379999587399, 60.311393000286799 ] } },
{ "type": "Feature", "properties": { "name": "Box", "lyhyt_tunn": "Si1314", "passengers": 1 }, "geometry": { "type": "Point", "coordinates": [ 25.3888899999736, 60.3122949996146 ] } },
{ "type": "Feature", "properties": { "name": "Boxby skola", "lyhyt_tunn": "Si1318", "passengers": 14 }, "geometry": { "type": "Point", "coordinates": [ 25.393678000439401, 60.306650000097498 ] } },
{ "type": "Feature", "properties": { "name": "Boxby skola", "lyhyt_tunn": "Si1319", "passengers": 8 }, "geometry": { "type": "Point", "coordinates": [ 25.3937930003468, 60.3057499999626 ] } },
{ "type": "Feature", "properties": { "name": "Boxin paloasema", "lyhyt_tunn": "Si1323", "passengers": 0 }, "geometry": { "type": "Point", "coordinates": [ 25.3953850000178, 60.302874999581597 ] } },
{ "type": "Feature", "properties": { "name": "Boxin Shell", "lyhyt_tunn": "Si1332", "passengers": 10 }, "geometry": { "type": "Point", "coordinates": [ 25.387329999979599, 60.311137000172501 ] } },
{ "type": "Feature", "properties": { "name": "Brahenkatu", "lyhyt_tunn": "H2146", "passengers": 10 }, "geometry": { "type": "Point", "coordinates": [ 24.948000000099999, 60.189379999787199 ] } },
{ "type": "Feature", "properties": { "name": "Brahenkatu", "lyhyt_tunn": "H0261", "passengers": 238 }, "geometry": { "type": "Point", "coordinates": [ 24.9482600003988, 60.189780000246898 ] } },
{ "type": "Feature", "properties": { "name": "Brantaksentie", "lyhyt_tunn": "Si2510", "passengers": 1 }, "geometry": { "type": "Point", "coordinates": [ 25.322257000160501, 60.410613000089903 ] } },
{ "type": "Feature", "properties": { "name": "Bredantie", "lyhyt_tunn": "Ka1722", "passengers": 14 }, "geometry": { "type": "Point", "coordinates": [ 24.7232100003413, 60.2127700001354 ] } },
{ "type": "Feature", "properties": { "name": "Bredvassintie", "lyhyt_tunn": "Ki1418", "passengers": 1 }, "geometry": { "type": "Point", "coordinates": [ 24.424471999783002, 60.210464999959797 ] } },
{ "type": "Feature", "properties": { "name": "Brinkinmäki", "lyhyt_tunn": "E4232", "passengers": 32 }, "geometry": { "type": "Point", "coordinates": [ 24.612190999614999, 60.169834999585603 ] } },
{ "type": "Feature", "properties": { "name": "Brinkinmäki", "lyhyt_tunn": "E4248", "passengers": 11 }, "geometry": { "type": "Point", "coordinates": [ 24.6116299998247, 60.170140000160899 ] } },
{ "type": "Feature", "properties": { "name": "Broaksentie", "lyhyt_tunn": "Si2504", "passengers": 13 }, "geometry": { "type": "Point", "coordinates": [ 25.305317999625998, 60.405853000016002 ] } },
{ "type": "Feature", "properties": { "name": "Broaksentie", "lyhyt_tunn": "Si2505", "passengers": 0 }, "geometry": { "type": "Point", "coordinates": [ 25.306649999897601, 60.406127000061097 ] } },
{ "type": "Feature", "properties": { "name": "Brobackanpiha", "lyhyt_tunn": "E6448", "passengers": 4 }, "geometry": { "type": "Point", "coordinates": [ 24.590489999813698, 60.248950000342298 ] } },
{ "type": "Feature", "properties": { "name": "Brobackanpiha", "lyhyt_tunn": "E6453", "passengers": 1 }, "geometry": { "type": "Point", "coordinates": [ 24.590480000251901, 60.249470000040503 ] } },
{ "type": "Feature", "properties": { "name": "Broböle", "lyhyt_tunn": "Si1619", "passengers": 2 }, "geometry": { "type": "Point", "coordinates": [ 25.266867999958301, 60.356245000206599 ] } },
{ "type": "Feature", "properties": { "name": "Brobölen mäki", "lyhyt_tunn": "Si2012", "passengers": 0 }, "geometry": { "type": "Point", "coordinates": [ 25.267033000372699, 60.354501999867502 ] } },
{ "type": "Feature", "properties": { "name": "Brobölen mäki", "lyhyt_tunn": "Si2014", "passengers": 0 }, "geometry": { "type": "Point", "coordinates": [ 25.268340000390801, 60.3534530000559 ] } },
{ "type": "Feature", "properties": { "name": "Brudbrinken", "lyhyt_tunn": "Si2004", "passengers": 0 }, "geometry": { "type": "Point", "coordinates": [ 25.262062999607799, 60.346382000429102 ] } },
{ "type": "Feature", "properties": { "name": "Brusaksentie", "lyhyt_tunn": "Si2618", "passengers": 1 }, "geometry": { "type": "Point", "coordinates": [ 25.254849999727799, 60.422541999813497 ] } },
{ "type": "Feature", "properties": { "name": "Brödtorp", "lyhyt_tunn": "E7017", "passengers": 0 }, "geometry": { "type": "Point", "coordinates": [ 24.710160000183901, 60.271249999887601 ] } },
{ "type": "Feature", "properties": { "name": "Brödtorp", "lyhyt_tunn": "E7018", "passengers": 0 }, "geometry": { "type": "Point", "coordinates": [ 24.709979999977101, 60.271510000186403 ] } },
{ "type": "Feature", "properties": { "name": "Bulevardi", "lyhyt_tunn": "H1211", "passengers": 449 }, "geometry": { "type": "Point", "coordinates": [ 24.936220000053002, 60.164939999581399 ] } },
{ "type": "Feature", "properties": { "name": "Bulevardi", "lyhyt_tunn": "H1210", "passengers": 71 }, "geometry": { "type": "Point", "coordinates": [ 24.934098000222601, 60.163645000116702 ] } },
{ "type": "Feature", "properties": { "name": "Byagården", "lyhyt_tunn": "Si1502", "passengers": 0 }, "geometry": { "type": "Point", "coordinates": [ 25.2410479999653, 60.338484999583102 ] } },
{ "type": "Feature", "properties": { "name": "Byarsborg", "lyhyt_tunn": "Si1222", "passengers": 0 }, "geometry": { "type": "Point", "coordinates": [ 25.497185000087701, 60.276006999823203 ] } },
{ "type": "Feature", "properties": { "name": "Byarsborg", "lyhyt_tunn": "Si1224", "passengers": 2 }, "geometry": { "type": "Point", "coordinates": [ 25.4996500004472, 60.275407000033098 ] } },
{ "type": "Feature", "properties": { "name": "Bysantinkuja", "lyhyt_tunn": "H3213", "passengers": 29 }, "geometry": { "type": "Point", "coordinates": [ 24.9899169995699, 60.2280329998231 ] } },
{ "type": "Feature", "properties": { "name": "Bysantinkuja", "lyhyt_tunn": "H3214", "passengers": 75 }, "geometry": { "type": "Point", "coordinates": [ 24.9902070003528, 60.228412000213702 ] } },
{ "type": "Feature", "properties": { "name": "Byända", "lyhyt_tunn": "V9713", "passengers": 1 }, "geometry": { "type": "Point", "coordinates": [ 25.127280000171901, 60.318679999982102 ] } },
{ "type": "Feature", "properties": { "name": "Båtvikintie", "lyhyt_tunn": "Ki0501", "passengers": 0 }, "geometry": { "type": "Point", "coordinates": [ 24.366390000398301, 60.103862999677702 ] } },
{ "type": "Feature", "properties": { "name": "Bässnäs", "lyhyt_tunn": "Ki1414", "passengers": 0 }, "geometry": { "type": "Point", "coordinates": [ 24.418357000175501, 60.205446999679303 ] } },
{ "type": "Feature", "properties": { "name": "Bölentie", "lyhyt_tunn": "Ki0934", "passengers": 0 }, "geometry": { "type": "Point", "coordinates": [ 24.475460000278801, 60.016299999645298 ] } },
{ "type": "Feature", "properties": { "name": "Böstaksentie", "lyhyt_tunn": "H3298", "passengers": 99 }, "geometry": { "type": "Point", "coordinates": [ 25.0118999997852, 60.281967000376802 ] } },
{ "type": "Feature", "properties": { "name": "Caravellentie", "lyhyt_tunn": "V4132", "passengers": 5 }, "geometry": { "type": "Point", "coordinates": [ 24.915590000178401, 60.2946099997517 ] } },
{ "type": "Feature", "properties": { "name": "Caravellentie", "lyhyt_tunn": "V4155", "passengers": 0 }, "geometry": { "type": "Point", "coordinates": [ 24.916390000198401, 60.303680999878303 ] } },
{ "type": "Feature", "properties": { "name": "Caravellentie", "lyhyt_tunn": "V4156", "passengers": 6 }, "geometry": { "type": "Point", "coordinates": [ 24.917561000239999, 60.303558999648097 ] } },
{ "type": "Feature", "properties": { "name": "Castréninkatu", "lyhyt_tunn": "H0227", "passengers": 137 }, "geometry": { "type": "Point", "coordinates": [ 24.945239999626299, 60.182869999950597 ] } },
{ "type": "Feature", "properties": { "name": "Castréninkatu", "lyhyt_tunn": "H0228", "passengers": 43 }, "geometry": { "type": "Point", "coordinates": [ 24.9453599997642, 60.182760000273802 ] } },
{ "type": "Feature", "properties": { "name": "Damsinrinne", "lyhyt_tunn": "Ki1106", "passengers": 6 }, "geometry": { "type": "Point", "coordinates": [ 24.568400000059999, 60.0955769997788 ] } },
{ "type": "Feature", "properties": { "name": "Damsinrinne", "lyhyt_tunn": "Ki1107", "passengers": 0 }, "geometry": { "type": "Point", "coordinates": [ 24.567762000316101, 60.095729999639801 ] } },
{ "type": "Feature", "properties": { "name": "Danielsbackantie", "lyhyt_tunn": "Si1017", "passengers": 2 }, "geometry": { "type": "Point", "coordinates": [ 25.3034649996101, 60.296997000111503 ] } },
{ "type": "Feature", "properties": { "name": "Dansberget", "lyhyt_tunn": "Ki1110", "passengers": 4 }, "geometry": { "type": "Point", "coordinates": [ 24.5675569998557, 60.104821999835501 ] } },
{ "type": "Feature", "properties": { "name": "Dansberget", "lyhyt_tunn": "Ki1111", "passengers": 0 }, "geometry": { "type": "Point", "coordinates": [ 24.567665000339598, 60.1052420003181 ] } },
{ "type": "Feature", "properties": { "name": "DHL etelä", "lyhyt_tunn": "V4105", "passengers": 1 }, "geometry": { "type": "Point", "coordinates": [ 24.902609999651801, 60.316509999736802 ] } },
{ "type": "Feature", "properties": { "name": "DHL etelä", "lyhyt_tunn": "V5355", "passengers": 0 }, "geometry": { "type": "Point", "coordinates": [ 24.9054799998022, 60.316959999804197 ] } },
{ "type": "Feature", "properties": { "name": "DHL Express", "lyhyt_tunn": "V5333", "passengers": 14 }, "geometry": { "type": "Point", "coordinates": [ 24.993090000203399, 60.312000000399699 ] } },
{ "type": "Feature", "properties": { "name": "DHL pohjoinen", "lyhyt_tunn": "V4106", "passengers": 68 }, "geometry": { "type": "Point", "coordinates": [ 24.910549999782699, 60.318690000443198 ] } },
{ "type": "Feature", "properties": { "name": "DHL pohjoinen", "lyhyt_tunn": "V5356", "passengers": 3 }, "geometry": { "type": "Point", "coordinates": [ 24.913170000095501, 60.319589999678797 ] } },
{ "type": "Feature", "properties": { "name": "Diakoniapuisto", "lyhyt_tunn": "H2066", "passengers": 168 }, "geometry": { "type": "Point", "coordinates": [ 24.941209999941599, 60.186419999983102 ] } },
{ "type": "Feature", "properties": { "name": "Diakoniapuisto", "lyhyt_tunn": "H2067", "passengers": 123 }, "geometry": { "type": "Point", "coordinates": [ 24.941849999777698, 60.186430000444197 ] } },
{ "type": "Feature", "properties": { "name": "Dipoli", "lyhyt_tunn": "E2204", "passengers": 716 }, "geometry": { "type": "Point", "coordinates": [ 24.832120000038, 60.182740000250902 ] } },
{ "type": "Feature", "properties": { "name": "Djupvikintie", "lyhyt_tunn": "Si1228", "passengers": 0 }, "geometry": { "type": "Point", "coordinates": [ 25.4988179998509, 60.264198000237599 ] } },
{ "type": "Feature", "properties": { "name": "Dosentintie", "lyhyt_tunn": "H1448", "passengers": 0 }, "geometry": { "type": "Point", "coordinates": [ 24.873697000016598, 60.202136999922701 ] } },
{ "type": "Feature", "properties": { "name": "Dosentintie", "lyhyt_tunn": "H1405", "passengers": 1 }, "geometry": { "type": "Point", "coordinates": [ 24.874431999737102, 60.201899999785198 ] } },
{ "type": "Feature", "properties": { "name": "Dåvits", "lyhyt_tunn": "Ki1118", "passengers": 0 }, "geometry": { "type": "Point", "coordinates": [ 24.6010399997962, 60.077473000378703 ] } },
{ "type": "Feature", "properties": { "name": "Dåvits", "lyhyt_tunn": "Ki1119", "passengers": 0 }, "geometry": { "type": "Point", "coordinates": [ 24.5994100001714, 60.0784870003748 ] } },
{ "type": "Feature", "properties": { "name": "Edis", "lyhyt_tunn": "Ki0722", "passengers": 44 }, "geometry": { "type": "Point", "coordinates": [ 24.410102999953601, 60.094424999714001 ] } },
{ "type": "Feature", "properties": { "name": "Edis", "lyhyt_tunn": "Ki0723", "passengers": 5 }, "geometry": { "type": "Point", "coordinates": [ 24.409259999749199, 60.094627000036098 ] } },
{ "type": "Feature", "properties": { "name": "Edvard Blomqvistin p", "lyhyt_tunn": "V6217", "passengers": 171 }, "geometry": { "type": "Point", "coordinates": [ 25.055708000124199, 60.298279999922102 ] } },
{ "type": "Feature", "properties": { "name": "Eerikinkartano", "lyhyt_tunn": "Ki1220", "passengers": 0 }, "geometry": { "type": "Point", "coordinates": [ 24.430902000427, 60.2571509999188 ] } },
{ "type": "Feature", "properties": { "name": "Eestinahde", "lyhyt_tunn": "E4915", "passengers": 23 }, "geometry": { "type": "Point", "coordinates": [ 24.677870000400301, 60.168529999659803 ] } },
{ "type": "Feature", "properties": { "name": "Eestinahde", "lyhyt_tunn": "E4928", "passengers": 122 }, "geometry": { "type": "Point", "coordinates": [ 24.677920000008001, 60.169340000140899 ] } },
{ "type": "Feature", "properties": { "name": "Eestinkallio", "lyhyt_tunn": "E4932", "passengers": 185 }, "geometry": { "type": "Point", "coordinates": [ 24.688940000081001, 60.172629999874601 ] } },
{ "type": "Feature", "properties": { "name": "Eestinkylä", "lyhyt_tunn": "Ki0816", "passengers": 0 }, "geometry": { "type": "Point", "coordinates": [ 24.4579480003, 60.088725000358501 ] } },
{ "type": "Feature", "properties": { "name": "Eestinkylä", "lyhyt_tunn": "Ki0817", "passengers": 1 }, "geometry": { "type": "Point", "coordinates": [ 24.457314999887402, 60.089492999802097 ] } },
{ "type": "Feature", "properties": { "name": "Eestinkyläntie", "lyhyt_tunn": "Ki0403", "passengers": 0 }, "geometry": { "type": "Point", "coordinates": [ 24.438079999592301, 60.1060279996925 ] } },
{ "type": "Feature", "properties": { "name": "Eestinkyläntie", "lyhyt_tunn": "Ki0404", "passengers": 1 }, "geometry": { "type": "Point", "coordinates": [ 24.439314999887401, 60.106514999667603 ] } },
{ "type": "Feature", "properties": { "name": "Eestinlaakso", "lyhyt_tunn": "E4953", "passengers": 24 }, "geometry": { "type": "Point", "coordinates": [ 24.6775999996403, 60.170189999768802 ] } },
{ "type": "Feature", "properties": { "name": "Eino Sirenin katu", "lyhyt_tunn": "V6226", "passengers": 36 }, "geometry": { "type": "Point", "coordinates": [ 25.050600000189899, 60.298030000084502 ] } },
{ "type": "Feature", "properties": { "name": "Eira", "lyhyt_tunn": "H1177", "passengers": 317 }, "geometry": { "type": "Point", "coordinates": [ 24.942500000075, 60.155619999663301 ] } },
{ "type": "Feature", "properties": { "name": "Eira", "lyhyt_tunn": "H1178", "passengers": 57 }, "geometry": { "type": "Point", "coordinates": [ 24.942440000006101, 60.155400000309797 ] } },
{ "type": "Feature", "properties": { "name": "Eiran sairaala", "lyhyt_tunn": "H1175", "passengers": 432 }, "geometry": { "type": "Point", "coordinates": [ 24.941499999825201, 60.157689999793703 ] } },
{ "type": "Feature", "properties": { "name": "Eiran sairaala", "lyhyt_tunn": "H1176", "passengers": 4 }, "geometry": { "type": "Point", "coordinates": [ 24.941270000010501, 60.157879999562397 ] } },
{ "type": "Feature", "properties": { "name": "Eliel Saarisen tie", "lyhyt_tunn": "H1740", "passengers": 1 }, "geometry": { "type": "Point", "coordinates": [ 24.894778000004699, 60.219671000016703 ] } },
{ "type": "Feature", "properties": { "name": "Eliel Saarisen tie", "lyhyt_tunn": "H1741", "passengers": 1 }, "geometry": { "type": "Point", "coordinates": [ 24.894172999984001, 60.219857999646997 ] } },
{ "type": "Feature", "properties": { "name": "Eliel Saarisen tie", "lyhyt_tunn": "H1655", "passengers": 220 }, "geometry": { "type": "Point", "coordinates": [ 24.898519999898198, 60.224240000275898 ] } },
{ "type": "Feature", "properties": { "name": "Eliel Saarisen tie", "lyhyt_tunn": "H1654", "passengers": 358 }, "geometry": { "type": "Point", "coordinates": [ 24.898629999574901, 60.224080000092002 ] } },
{ "type": "Feature", "properties": { "name": "Elielinaukio", "lyhyt_tunn": "H2020", "passengers": 321 }, "geometry": { "type": "Point", "coordinates": [ 24.939580000316798, 60.171202999718702 ] } },
{ "type": "Feature", "properties": { "name": "Elielinaukio", "lyhyt_tunn": "H2021", "passengers": 232 }, "geometry": { "type": "Point", "coordinates": [ 24.939719999578401, 60.171649999647798 ] } },
{ "type": "Feature", "properties": { "name": "Elielinaukio", "lyhyt_tunn": "H2022", "passengers": 1935 }, "geometry": { "type": "Point", "coordinates": [ 24.939839999716199, 60.171820000292797 ] } },
{ "type": "Feature", "properties": { "name": "Elielinaukio", "lyhyt_tunn": "H2025", "passengers": 1199 }, "geometry": { "type": "Point", "coordinates": [ 24.939750000062499, 60.171949999992499 ] } },
{ "type": "Feature", "properties": { "name": "Elielinaukio", "lyhyt_tunn": "H2023", "passengers": 950 }, "geometry": { "type": "Point", "coordinates": [ 24.939739999601301, 60.171789999808702 ] } },
{ "type": "Feature", "properties": { "name": "Elielinaukio", "lyhyt_tunn": "H2024", "passengers": 1350 }, "geometry": { "type": "Point", "coordinates": [ 24.939719999578401, 60.171860000338803 ] } },
{ "type": "Feature", "properties": { "name": "Elielinaukio", "lyhyt_tunn": "H2020", "passengers": 302 }, "geometry": { "type": "Point", "coordinates": [ 24.939739999601301, 60.171129999949599 ] } },
{ "type": "Feature", "properties": { "name": "Elielinaukio", "lyhyt_tunn": "H2026", "passengers": 1072 }, "geometry": { "type": "Point", "coordinates": [ 24.939770000085499, 60.171999999600402 ] } },
{ "type": "Feature", "properties": { "name": "Elielinaukio", "lyhyt_tunn": "H2027", "passengers": 1014 }, "geometry": { "type": "Point", "coordinates": [ 24.939719999578401, 60.172050000107397 ] } },
{ "type": "Feature", "properties": { "name": "Elielinaukio", "lyhyt_tunn": "H2028", "passengers": 1153 }, "geometry": { "type": "Point", "coordinates": [ 24.939739999601301, 60.172110000176403 ] } },
{ "type": "Feature", "properties": { "name": "Elielinaukio", "lyhyt_tunn": "H2029", "passengers": 884 }, "geometry": { "type": "Point", "coordinates": [ 24.939699999555401, 60.172179999807199 ] } },
{ "type": "Feature", "properties": { "name": "Elimäenkatu", "lyhyt_tunn": "H2155", "passengers": 241 }, "geometry": { "type": "Point", "coordinates": [ 24.953819999593399, 60.193020000372798 ] } },
{ "type": "Feature", "properties": { "name": "Elimäenkatu", "lyhyt_tunn": "H2154", "passengers": 334 }, "geometry": { "type": "Point", "coordinates": [ 24.955309999956601, 60.193809999931602 ] } },
{ "type": "Feature", "properties": { "name": "Elontie", "lyhyt_tunn": "H2247", "passengers": 18 }, "geometry": { "type": "Point", "coordinates": [ 24.925400000209901, 60.244259999899199 ] } },
{ "type": "Feature", "properties": { "name": "Elontie", "lyhyt_tunn": "H2246", "passengers": 279 }, "geometry": { "type": "Point", "coordinates": [ 24.925179999957098, 60.244330000429201 ] } },
{ "type": "Feature", "properties": { "name": "Eläintarha", "lyhyt_tunn": "H2075", "passengers": 37 }, "geometry": { "type": "Point", "coordinates": [ 24.930840000165901, 60.192490000213397 ] } },
{ "type": "Feature", "properties": { "name": "Eläintarha", "lyhyt_tunn": "H2109", "passengers": 105 }, "geometry": { "type": "Point", "coordinates": [ 24.9298999999851, 60.193029999934602 ] } },
{ "type": "Feature", "properties": { "name": "Eläintarha", "lyhyt_tunn": "H2074", "passengers": 160 }, "geometry": { "type": "Point", "coordinates": [ 24.928170000245402, 60.192319999568397 ] } },
{ "type": "Feature", "properties": { "name": "Emännänkuja", "lyhyt_tunn": "V1825", "passengers": 48 }, "geometry": { "type": "Point", "coordinates": [ 24.873015000042201, 60.2846150001822 ] } },
{ "type": "Feature", "properties": { "name": "Emännänkuja", "lyhyt_tunn": "V1826", "passengers": 229 }, "geometry": { "type": "Point", "coordinates": [ 24.872659999859099, 60.282920000257903 ] } },
{ "type": "Feature", "properties": { "name": "Emännäntie", "lyhyt_tunn": "E6339", "passengers": 2 }, "geometry": { "type": "Point", "coordinates": [ 24.7166000003897, 60.249940000130898 ] } },
{ "type": "Feature", "properties": { "name": "Emännäntie", "lyhyt_tunn": "E6340", "passengers": 32 }, "geometry": { "type": "Point", "coordinates": [ 24.7156899997937, 60.249599999740298 ] } },
{ "type": "Feature", "properties": { "name": "Epinkoskentie", "lyhyt_tunn": "V7027", "passengers": 8 }, "geometry": { "type": "Point", "coordinates": [ 25.026779999797199, 60.324409999821697 ] } },
{ "type": "Feature", "properties": { "name": "Epinkoskentie", "lyhyt_tunn": "V7131", "passengers": 1 }, "geometry": { "type": "Point", "coordinates": [ 25.024430000244401, 60.324509999936602 ] } },
{ "type": "Feature", "properties": { "name": "Ericsson", "lyhyt_tunn": "Ki0313", "passengers": 4 }, "geometry": { "type": "Point", "coordinates": [ 24.513692999832099, 60.131883000400201 ] } },
{ "type": "Feature", "properties": { "name": "Ericsson", "lyhyt_tunn": "Ki0328", "passengers": 2 }, "geometry": { "type": "Point", "coordinates": [ 24.512607000113, 60.132833000142902 ] } },
{ "type": "Feature", "properties": { "name": "Erik Basse", "lyhyt_tunn": "E5103", "passengers": 1 }, "geometry": { "type": "Point", "coordinates": [ 24.610860000288799, 60.193480000002097 ] } },
{ "type": "Feature", "properties": { "name": "Erik Basse", "lyhyt_tunn": "E5104", "passengers": 37 }, "geometry": { "type": "Point", "coordinates": [ 24.6116699998706, 60.193640000185901 ] } },
{ "type": "Feature", "properties": { "name": "Erik Spåren tie", "lyhyt_tunn": "H3470", "passengers": 162 }, "geometry": { "type": "Point", "coordinates": [ 25.0305300000595, 60.231120000087998 ] } },
{ "type": "Feature", "properties": { "name": "Erik Spåren tie", "lyhyt_tunn": "H3469", "passengers": 631 }, "geometry": { "type": "Point", "coordinates": [ 25.029879999762201, 60.230520000297801 ] } },
{ "type": "Feature", "properties": { "name": "Erottaja", "lyhyt_tunn": "H1900", "passengers": 38 }, "geometry": { "type": "Point", "coordinates": [ 24.9423399998911, 60.167140000310802 ] } },
{ "type": "Feature", "properties": { "name": "Erottaja", "lyhyt_tunn": "H1001", "passengers": 271 }, "geometry": { "type": "Point", "coordinates": [ 24.9434800003018, 60.167009999711802 ] } },
{ "type": "Feature", "properties": { "name": "Erottaja", "lyhyt_tunn": "H1901", "passengers": 72 }, "geometry": { "type": "Point", "coordinates": [ 24.942480000052001, 60.1674900002633 ] } },
{ "type": "Feature", "properties": { "name": "Eräkuja", "lyhyt_tunn": "V1517", "passengers": 42 }, "geometry": { "type": "Point", "coordinates": [ 24.8548099995818, 60.271719999978103 ] } },
{ "type": "Feature", "properties": { "name": "Eräkuja", "lyhyt_tunn": "V1518", "passengers": 34 }, "geometry": { "type": "Point", "coordinates": [ 24.856230000314302, 60.270300000144999 ] } },
{ "type": "Feature", "properties": { "name": "Eränkävijäntori", "lyhyt_tunn": "H4057", "passengers": 86 }, "geometry": { "type": "Point", "coordinates": [ 25.0346700003203, 60.204620000212898 ] } },
{ "type": "Feature", "properties": { "name": "Eränkävijäntori", "lyhyt_tunn": "H4058", "passengers": 409 }, "geometry": { "type": "Point", "coordinates": [ 25.033879999862201, 60.204230000214402 ] } },
{ "type": "Feature", "properties": { "name": "Esikkotie", "lyhyt_tunn": "V6139", "passengers": 10 }, "geometry": { "type": "Point", "coordinates": [ 25.0409399998811, 60.298999999850203 ] } },
{ "type": "Feature", "properties": { "name": "Esikoisentie", "lyhyt_tunn": "H2329", "passengers": 1 }, "geometry": { "type": "Point", "coordinates": [ 24.8970699995809, 60.251310000356298 ] } },
{ "type": "Feature", "properties": { "name": "Esikoisentie", "lyhyt_tunn": "H2330", "passengers": 43 }, "geometry": { "type": "Point", "coordinates": [ 24.896389999698801, 60.250829999804701 ] } },
{ "type": "Feature", "properties": { "name": "Eskolantie", "lyhyt_tunn": "H3187", "passengers": 427 }, "geometry": { "type": "Point", "coordinates": [ 24.9938599997392, 60.243979999577398 ] } },
{ "type": "Feature", "properties": { "name": "Eskolantie", "lyhyt_tunn": "H3188", "passengers": 369 }, "geometry": { "type": "Point", "coordinates": [ 24.994510000036499, 60.243239999626297 ] } },
{ "type": "Feature", "properties": { "name": "Eskolantie", "lyhyt_tunn": "H3234", "passengers": 257 }, "geometry": { "type": "Point", "coordinates": [ 24.9963900003983, 60.243179999557398 ] } },
{ "type": "Feature", "properties": { "name": "Eskolantie", "lyhyt_tunn": "H3233", "passengers": 25 }, "geometry": { "type": "Point", "coordinates": [ 24.996789999958601, 60.243279999672303 ] } },
{ "type": "Feature", "properties": { "name": "Eskonmäentie", "lyhyt_tunn": "Ki1322", "passengers": 8 }, "geometry": { "type": "Point", "coordinates": [ 24.395456999940599, 60.254055000138202 ] } },
{ "type": "Feature", "properties": { "name": "Eskonmäentie", "lyhyt_tunn": "Ki1323", "passengers": 0 }, "geometry": { "type": "Point", "coordinates": [ 24.395288000241099, 60.254181999699597 ] } },
{ "type": "Feature", "properties": { "name": "Eskos", "lyhyt_tunn": "Si2010", "passengers": 0 }, "geometry": { "type": "Point", "coordinates": [ 25.264845000196701, 60.323868000008197 ] } },
{ "type": "Feature", "properties": { "name": "Eskos", "lyhyt_tunn": "Si2013", "passengers": 0 }, "geometry": { "type": "Point", "coordinates": [ 25.2661079999843, 60.322709999666799 ] } },
{ "type": "Feature", "properties": { "name": "Espoon asema", "lyhyt_tunn": "E6008", "passengers": 1404 }, "geometry": { "type": "Point", "coordinates": [ 24.6557300001394, 60.205560000393703 ] } },
{ "type": "Feature", "properties": { "name": "Espoon asema", "lyhyt_tunn": "E6017", "passengers": 106 }, "geometry": { "type": "Point", "coordinates": [ 24.662109000230199, 60.2051300003493 ] } },
{ "type": "Feature", "properties": { "name": "Espoon asema", "lyhyt_tunn": "E6019", "passengers": 963 }, "geometry": { "type": "Point", "coordinates": [ 24.657809999831699, 60.205699999655302 ] } },
{ "type": "Feature", "properties": { "name": "Espoon asema", "lyhyt_tunn": "E6023", "passengers": 771 }, "geometry": { "type": "Point", "coordinates": [ 24.6563299999296, 60.203709999616798 ] } },
{ "type": "Feature", "properties": { "name": "Espoon asema", "lyhyt_tunn": "E6024", "passengers": 1000 }, "geometry": { "type": "Point", "coordinates": [ 24.6566700003203, 60.203539999871197 ] } },
{ "type": "Feature", "properties": { "name": "Espoon asema", "lyhyt_tunn": "E6027", "passengers": 794 }, "geometry": { "type": "Point", "coordinates": [ 24.656860000089001, 60.205349999702797 ] } },
{ "type": "Feature", "properties": { "name": "Espoon asema", "lyhyt_tunn": "E6113", "passengers": 11 }, "geometry": { "type": "Point", "coordinates": [ 24.661452999656301, 60.205708000024202 ] } },
{ "type": "Feature", "properties": { "name": "Espoonkartano", "lyhyt_tunn": "E5145", "passengers": 1 }, "geometry": { "type": "Point", "coordinates": [ 24.579299999995001, 60.197999999800203 ] } },
{ "type": "Feature", "properties": { "name": "Espoonkartano", "lyhyt_tunn": "E5146", "passengers": 2 }, "geometry": { "type": "Point", "coordinates": [ 24.580610000151399, 60.198110000376303 ] } },
{ "type": "Feature", "properties": { "name": "Espoonlahden uimahal", "lyhyt_tunn": "E4012", "passengers": 150 }, "geometry": { "type": "Point", "coordinates": [ 24.658199999830199, 60.147759999624299 ] } },
{ "type": "Feature", "properties": { "name": "Espoonlahden uimahal", "lyhyt_tunn": "E4013", "passengers": 345 }, "geometry": { "type": "Point", "coordinates": [ 24.658460000129001, 60.147660000408699 ] } },
{ "type": "Feature", "properties": { "name": "Espoonlahdenportti", "lyhyt_tunn": "E4003", "passengers": 18 }, "geometry": { "type": "Point", "coordinates": [ 24.651669999970601, 60.153379999787198 ] } },
{ "type": "Feature", "properties": { "name": "Espoonlahdenportti", "lyhyt_tunn": "E4004", "passengers": 63 }, "geometry": { "type": "Point", "coordinates": [ 24.655830000254401, 60.152670000320299 ] } },
{ "type": "Feature", "properties": { "name": "Espoonlahdensolmu", "lyhyt_tunn": "E4209", "passengers": 71 }, "geometry": { "type": "Point", "coordinates": [ 24.660871999843, 60.153847999785398 ] } },
{ "type": "Feature", "properties": { "name": "Espoonlahdensolmu", "lyhyt_tunn": "E4444", "passengers": 3 }, "geometry": { "type": "Point", "coordinates": [ 24.667688000300998, 60.153207999949302 ] } },
{ "type": "Feature", "properties": { "name": "Espoontori", "lyhyt_tunn": "E6036", "passengers": 400 }, "geometry": { "type": "Point", "coordinates": [ 24.658580000266898, 60.2049599997043 ] } },
{ "type": "Feature", "properties": { "name": "Espoontori", "lyhyt_tunn": "E6037", "passengers": 23 }, "geometry": { "type": "Point", "coordinates": [ 24.657694999924299, 60.205034999565598 ] } },
{ "type": "Feature", "properties": { "name": "Estepolku", "lyhyt_tunn": "V9123", "passengers": 1 }, "geometry": { "type": "Point", "coordinates": [ 25.108564000428299, 60.2450710004264 ] } },
{ "type": "Feature", "properties": { "name": "Etanapolku", "lyhyt_tunn": "H4718", "passengers": 0 }, "geometry": { "type": "Point", "coordinates": [ 25.054729999989501, 60.181172999934098 ] } },
{ "type": "Feature", "properties": { "name": "Etelä-Kaskela", "lyhyt_tunn": "Ke0522", "passengers": 0 }, "geometry": { "type": "Point", "coordinates": [ 25.1417100001165, 60.406839999666303 ] } },
{ "type": "Feature", "properties": { "name": "Etelä-Kaskela", "lyhyt_tunn": "Ke0524", "passengers": 4 }, "geometry": { "type": "Point", "coordinates": [ 25.1428299996048, 60.406449999667799 ] } },
{ "type": "Feature", "properties": { "name": "Etelä-Kaskela", "lyhyt_tunn": "Ke0526", "passengers": 104 }, "geometry": { "type": "Point", "coordinates": [ 25.139590000378298, 60.405979999577397 ] } },
{ "type": "Feature", "properties": { "name": "Eteläloisto", "lyhyt_tunn": "H4593", "passengers": 1 }, "geometry": { "type": "Point", "coordinates": [ 25.177529999909599, 60.210650000397301 ] } },
{ "type": "Feature", "properties": { "name": "Eteläniitynpolku", "lyhyt_tunn": "H3735", "passengers": 6 }, "geometry": { "type": "Point", "coordinates": [ 24.9913079998644, 60.239235000195201 ] } },
{ "type": "Feature", "properties": { "name": "Eteläreimarintie", "lyhyt_tunn": "H4595", "passengers": 0 }, "geometry": { "type": "Point", "coordinates": [ 25.1738599997393, 60.210300000444697 ] } },
{ "type": "Feature", "properties": { "name": "Etelätuulensilta", "lyhyt_tunn": "E2315", "passengers": 67 }, "geometry": { "type": "Point", "coordinates": [ 24.802199999830201, 60.168390000398198 ] } },
{ "type": "Feature", "properties": { "name": "Etupellonpuisto", "lyhyt_tunn": "H3129", "passengers": 10 }, "geometry": { "type": "Point", "coordinates": [ 24.959240000425702, 60.242909999696799 ] } },
{ "type": "Feature", "properties": { "name": "Etupellonpuisto", "lyhyt_tunn": "H3128", "passengers": 238 }, "geometry": { "type": "Point", "coordinates": [ 24.959470000240302, 60.242129999699799 ] } },
{ "type": "Feature", "properties": { "name": "Etuvartio", "lyhyt_tunn": "E1114", "passengers": 16 }, "geometry": { "type": "Point", "coordinates": [ 24.810249999637801, 60.213579999717197 ] } },
{ "type": "Feature", "properties": { "name": "Etuvartio", "lyhyt_tunn": "E1115", "passengers": 102 }, "geometry": { "type": "Point", "coordinates": [ 24.811340000440701, 60.213539999671298 ] } },
{ "type": "Feature", "properties": { "name": "Etuvartio", "lyhyt_tunn": "E1119", "passengers": 4 }, "geometry": { "type": "Point", "coordinates": [ 24.811760000024002, 60.212380000136903 ] } },
{ "type": "Feature", "properties": { "name": "Everstinkatu", "lyhyt_tunn": "E1155", "passengers": 70 }, "geometry": { "type": "Point", "coordinates": [ 24.826230000014601, 60.212640000435698 ] } },
{ "type": "Feature", "properties": { "name": "Everstinkatu", "lyhyt_tunn": "E1156", "passengers": 37 }, "geometry": { "type": "Point", "coordinates": [ 24.8262999996453, 60.212219999953099 ] } },
{ "type": "Feature", "properties": { "name": "Evitskog", "lyhyt_tunn": "Ki1514", "passengers": 5 }, "geometry": { "type": "Point", "coordinates": [ 24.340765000404499, 60.200958000411397 ] } },
{ "type": "Feature", "properties": { "name": "Evitskog", "lyhyt_tunn": "Ki1517", "passengers": 1 }, "geometry": { "type": "Point", "coordinates": [ 24.341999999800201, 60.201409999671803 ] } },
{ "type": "Feature", "properties": { "name": "Evitskogin VPK", "lyhyt_tunn": "Ki1515", "passengers": 1 }, "geometry": { "type": "Point", "coordinates": [ 24.338385000367499, 60.200861999581697 ] } },
{ "type": "Feature", "properties": { "name": "Evitskogin VPK", "lyhyt_tunn": "Ki1516", "passengers": 4 }, "geometry": { "type": "Point", "coordinates": [ 24.338529999859599, 60.201030000134402 ] } },
{ "type": "Feature", "properties": { "name": "Falkbergintie", "lyhyt_tunn": "Si0601", "passengers": 2 }, "geometry": { "type": "Point", "coordinates": [ 25.254172999984, 60.276078000399501 ] } },
{ "type": "Feature", "properties": { "name": "Falkbergintie", "lyhyt_tunn": "Si0602", "passengers": 1 }, "geometry": { "type": "Point", "coordinates": [ 25.254330000029501, 60.276099999615298 ] } },
{ "type": "Feature", "properties": { "name": "Fallintori", "lyhyt_tunn": "H2297", "passengers": 2 }, "geometry": { "type": "Point", "coordinates": [ 24.9515799997172, 60.262330000429202 ] } },
{ "type": "Feature", "properties": { "name": "Fallintori", "lyhyt_tunn": "H2298", "passengers": 225 }, "geometry": { "type": "Point", "coordinates": [ 24.951229999764699, 60.262319999968099 ] } },
{ "type": "Feature", "properties": { "name": "Fallkulla", "lyhyt_tunn": "H3807", "passengers": 0 }, "geometry": { "type": "Point", "coordinates": [ 25.030925000288601, 60.262862999827597 ] } },
{ "type": "Feature", "properties": { "name": "Fallkulla", "lyhyt_tunn": "H3808", "passengers": 1 }, "geometry": { "type": "Point", "coordinates": [ 25.030945000311601, 60.262934000403803 ] } },
{ "type": "Feature", "properties": { "name": "Fallkullantie", "lyhyt_tunn": "H3805", "passengers": 0 }, "geometry": { "type": "Point", "coordinates": [ 25.028907999904298, 60.261308000064197 ] } },
{ "type": "Feature", "properties": { "name": "Fallkullantie", "lyhyt_tunn": "H3806", "passengers": 1 }, "geometry": { "type": "Point", "coordinates": [ 25.029054000341901, 60.2613690001793 ] } },
{ "type": "Feature", "properties": { "name": "Fallpakankuja", "lyhyt_tunn": "H4627", "passengers": 2 }, "geometry": { "type": "Point", "coordinates": [ 25.133859999639299, 60.229769999885697 ] } },
{ "type": "Feature", "properties": { "name": "Fallpakankuja", "lyhyt_tunn": "H4628", "passengers": 1 }, "geometry": { "type": "Point", "coordinates": [ 25.133839999616299, 60.228920000257901 ] } },
{ "type": "Feature", "properties": { "name": "Fallpakka", "lyhyt_tunn": "H4541", "passengers": 261 }, "geometry": { "type": "Point", "coordinates": [ 25.1289299998197, 60.231149999672802 ] } },
{ "type": "Feature", "properties": { "name": "Fallpakka", "lyhyt_tunn": "H4542", "passengers": 465 }, "geometry": { "type": "Point", "coordinates": [ 25.128679999982101, 60.231240000225903 ] } },
{ "type": "Feature", "properties": { "name": "Fallåker", "lyhyt_tunn": "E6311", "passengers": 140 }, "geometry": { "type": "Point", "coordinates": [ 24.667980000276799, 60.221069999780703 ] } },
{ "type": "Feature", "properties": { "name": "Fallåker", "lyhyt_tunn": "E6312", "passengers": 206 }, "geometry": { "type": "Point", "coordinates": [ 24.667820000092998, 60.221249999987499 ] } },
{ "type": "Feature", "properties": { "name": "Fasaaninpolku", "lyhyt_tunn": "Ka1728", "passengers": 26 }, "geometry": { "type": "Point", "coordinates": [ 24.737979999777199, 60.209480000401797 ] } },
{ "type": "Feature", "properties": { "name": "Fasaaninpolku", "lyhyt_tunn": "Ka1729", "passengers": 34 }, "geometry": { "type": "Point", "coordinates": [ 24.739189999818699, 60.209489999963601 ] } },
{ "type": "Feature", "properties": { "name": "Fazerila", "lyhyt_tunn": "V9320", "passengers": 52 }, "geometry": { "type": "Point", "coordinates": [ 25.105409999771702, 60.257459999779201 ] } },
{ "type": "Feature", "properties": { "name": "Fazerila", "lyhyt_tunn": "V9321", "passengers": 13 }, "geometry": { "type": "Point", "coordinates": [ 25.1042700002603, 60.258000000399797 ] } },
{ "type": "Feature", "properties": { "name": "Fazerinkuja", "lyhyt_tunn": "V9318", "passengers": 6 }, "geometry": { "type": "Point", "coordinates": [ 25.102220000153, 60.2585099996368 ] } },
{ "type": "Feature", "properties": { "name": "Fazerinkuja", "lyhyt_tunn": "V9319", "passengers": 45 }, "geometry": { "type": "Point", "coordinates": [ 25.1012799999721, 60.2592699996109 ] } },
{ "type": "Feature", "properties": { "name": "Fazerintie", "lyhyt_tunn": "V9312", "passengers": 14 }, "geometry": { "type": "Point", "coordinates": [ 25.111999999700299, 60.256409999921601 ] } },
{ "type": "Feature", "properties": { "name": "Fazerintie", "lyhyt_tunn": "V9313", "passengers": 13 }, "geometry": { "type": "Point", "coordinates": [ 25.111729999839699, 60.256120000038003 ] } },
{ "type": "Feature", "properties": { "name": "Finno skola", "lyhyt_tunn": "E4920", "passengers": 78 }, "geometry": { "type": "Point", "coordinates": [ 24.700740000150901, 60.162200000030097 ] } },
{ "type": "Feature", "properties": { "name": "Finno skola", "lyhyt_tunn": "E4922", "passengers": 68 }, "geometry": { "type": "Point", "coordinates": [ 24.699369999925601, 60.161859999639297 ] } },
{ "type": "Feature", "properties": { "name": "Finnoonlaaksontie", "lyhyt_tunn": "E4917", "passengers": 8 }, "geometry": { "type": "Point", "coordinates": [ 24.711339999741298, 60.161729999939602 ] } },
{ "type": "Feature", "properties": { "name": "Finnoonlaaksontie", "lyhyt_tunn": "E4918", "passengers": 41 }, "geometry": { "type": "Point", "coordinates": [ 24.7095800004167, 60.161910000146499 ] } },
{ "type": "Feature", "properties": { "name": "Finnoonlahti", "lyhyt_tunn": "E4406", "passengers": 1 }, "geometry": { "type": "Point", "coordinates": [ 24.7104599996293, 60.153680000131899 ] } },
{ "type": "Feature", "properties": { "name": "Finnoonlahti", "lyhyt_tunn": "E4407", "passengers": 0 }, "geometry": { "type": "Point", "coordinates": [ 24.7102709999068, 60.153942999669802 ] } },
{ "type": "Feature", "properties": { "name": "Finnoonsatama", "lyhyt_tunn": "E4405", "passengers": 2 }, "geometry": { "type": "Point", "coordinates": [ 24.716710000066499, 60.148440000405699 ] } },
{ "type": "Feature", "properties": { "name": "Finnoonsilta", "lyhyt_tunn": "E4418", "passengers": 196 }, "geometry": { "type": "Point", "coordinates": [ 24.7080629997077, 60.159978000084699 ] } },
{ "type": "Feature", "properties": { "name": "Finnoonsolmu", "lyhyt_tunn": "E4901", "passengers": 110 }, "geometry": { "type": "Point", "coordinates": [ 24.703240000325799, 60.160419999783201 ] } },
{ "type": "Feature", "properties": { "name": "Finnoonsolmu", "lyhyt_tunn": "E4417", "passengers": 27 }, "geometry": { "type": "Point", "coordinates": [ 24.707720000078002, 60.160253000175899 ] } },
{ "type": "Feature", "properties": { "name": "Finnoonympyrä", "lyhyt_tunn": "E4902", "passengers": 185 }, "geometry": { "type": "Point", "coordinates": [ 24.7036329995634, 60.163276000187302 ] } },
{ "type": "Feature", "properties": { "name": "Finnoonympyrä", "lyhyt_tunn": "E4903", "passengers": 179 }, "geometry": { "type": "Point", "coordinates": [ 24.704230000114499, 60.161150000172398 ] } },
{ "type": "Feature", "properties": { "name": "Finnsinmäki", "lyhyt_tunn": "E5156", "passengers": 21 }, "geometry": { "type": "Point", "coordinates": [ 24.572640000435701, 60.190870000150397 ] } },
{ "type": "Feature", "properties": { "name": "Finnsinmäki", "lyhyt_tunn": "E5167", "passengers": 5 }, "geometry": { "type": "Point", "coordinates": [ 24.570450000167401, 60.191369999825703 ] } },
{ "type": "Feature", "properties": { "name": "Flamingo", "lyhyt_tunn": "V5134", "passengers": 20 }, "geometry": { "type": "Point", "coordinates": [ 24.968119999838201, 60.289699999955097 ] } },
{ "type": "Feature", "properties": { "name": "Flamingo", "lyhyt_tunn": "V5146", "passengers": 0 }, "geometry": { "type": "Point", "coordinates": [ 24.970109999876598, 60.290009999861603 ] } },
{ "type": "Feature", "properties": { "name": "Fleminginkatu", "lyhyt_tunn": "H0652", "passengers": 1 }, "geometry": { "type": "Point", "coordinates": [ 24.952849999827698, 60.1889000001349 ] } },
{ "type": "Feature", "properties": { "name": "Fleminginkatu", "lyhyt_tunn": "H0653", "passengers": 985 }, "geometry": { "type": "Point", "coordinates": [ 24.951900000085001, 60.189829999854702 ] } },
{ "type": "Feature", "properties": { "name": "Fleminginkatu", "lyhyt_tunn": "H2156", "passengers": 247 }, "geometry": { "type": "Point", "coordinates": [ 24.953332999618301, 60.189364999994801 ] } },